~Version Information
VERS.          2.00                         : CWLS Log ASCII Standard - Version 2.00
WRAP.          NO                           : One line per depth step
#
~Well Information
#MNEM.UNIT     DATA                         : DESCRIPTION      
#----.----     ---------                    : -----------------
STRT .FT          0.000                     : Start
STOP .FT       1712.592                     : Stop
STEP .FT          0.042                     : Step increment
NULL .         -999.250                     : Null value
COMP .                                      : Company
WELL .                                      : Well
FLD  .                                      : Field
PROV .                                      : Province / County
CTRY .                                      : State / Country
LOC  .                                      : Location
LOC2 .                                      : Location 2
SRVC .         Weatherford                  : Service company
UWI  .                                      : Unique Well ID
LL1  .                                      : Latitude
LL2  .                                      : Longitude
DATE .         20-Mar-2008                  : Logging date
#
~Curve Information
#MNEM.UNIT     API CODES                    : CURVE DESCRIPTION
#----.----     ---------                    : -----------------
DEPT .FT       00 001 00 00                 : Logged depth
GRTH .GAPI     31 790 00 00                 : GAMMA FROM CALIPER TOOL
COLL .CPS      00 000 00 00                 : CASING COLLAR LOCATOR
TEMP .DEGC     80 660 00 00                 : BOREHOLE TEMPERATURE
CATH .         00 000 00 00                 : THREE ARM CALIPER
DIFT .         00 000 00 00                 : DIFFERENTIAL TEMPERATURE
Bit IN.e                                    : MM
#
~Parameter Information
#MNEM.UNIT     VALUE                        : DESCRIPTION      
#----.----     ---------                    : -----------------
RNID .         temp                         : Run ID
EREF .FEET                                  : Elevation of depth reference
DREF .                                      : Depth reference
GL   .FEET                                  : Ground elevation
RUN  .                                      : Run number
TDD  .FEET                                  : TD (driller)
TDL  .FEET                                  : TD (logger)
CSGD .FEET                                  : Casing bottom (driller)
CSGL .FEET                                  : Casing bottom (logger)
BS   .INCHES                                : Bit size
MUD  .                                      : Mud type
MUDD .G/C3                                  : Mud density
MUDV .CP                                    : Mud viscosity
PH   .                                      : Mud pH
FL   .ML/30MIN                              : Mud fluid loss rate
MUDS .                                      : Mud sample source
TMAX .DEGC                                  : Max recorder temperature
TIMC .DAY/HR                                : Time circulation ended
TIML .DAY/HR                                : Time logger at bottom
UNIT .                                      : Equipment ID
BASE .                                      : Equipment base location
ENG  .                                      : Recording engineer
WIT  .                                      : Witnessed by
CSGS .INCHES   0.000                        : Casing size
CSGW .LB/FT    0.00                         : Casing weight
#
~Other Information
--------------------------------------------------------------------------------

--------------------------------------------------------------------------------
~A    DEPT       GRTH       COLL       TEMP       CATH       DIFT     Bit-IN
# ...
   794.976     67.246     -0.439     40.552      3.477     -0.011   -999.250
   795.018     67.191     -0.416     40.576      3.477     -0.011   -999.250
   795.060     66.989     -0.358     40.558      3.477     -0.011   -999.250
   795.102     66.786     -0.307     40.566      3.478     -0.011   -999.250
   795.144     66.649     -0.301     40.574      3.477     -0.012   -999.250
   795.186     66.423     -0.353     40.555      3.478     -0.012   -999.250
   795.228     66.150     -0.396     40.567      3.478     -0.012   -999.250
   795.270     65.822     -0.432     40.595      3.478     -0.012   -999.250
   795.312     65.597     -0.450     40.592      3.479     -0.012   -999.250
   795.354     65.648     -0.466     40.599      3.478     -0.012   -999.250
   795.396     65.760     -0.487     40.631      3.478     -0.012   -999.250
   795.438     65.793     -0.524     40.603      3.479     -0.012   -999.250
   795.480     65.800     -0.583     40.613      3.479     -0.012   -999.250
   795.522     65.834     -0.649     40.615      3.479     -0.012   -999.250
   795.564     65.914     -0.670     40.612      3.479     -0.012   -999.250
   795.606     65.989     -0.651     40.626      3.478     -0.011   -999.250
   795.648     66.132     -0.617     40.623      3.479     -0.011   -999.250
   795.690     66.301     -0.602     40.599      3.479     -0.011   -999.250
   795.732     66.519     -0.609     40.630      3.479     -0.011   -999.250
   795.774     66.765     -0.633     40.618      3.478     -0.011   -999.250
   795.816     66.944     -0.639     40.626      3.478     -0.011   -999.250
   795.858     67.168     -0.610     40.637      3.477     -0.010   -999.250
   795.900     67.475     -0.554     40.632      3.477     -0.010   -999.250
   795.942     67.967     -0.504     40.603      3.478     -0.009   -999.250
   795.984     68.459     -0.464     40.583      3.478     -0.009   -999.250
   796.026     68.851     -0.440     40.611      3.478     -0.009   -999.250
   796.068     69.382     -0.431     40.596      3.478     -0.009   -999.250
   796.110     70.053     -0.420     40.606      3.477     -0.008   -999.250
   796.152     70.752     -0.377     40.596      3.477     -0.008   -999.250
   796.194     71.508     -0.285     40.618      3.477     -0.008   -999.250
   796.236     72.248     -0.219     40.601      3.477     -0.007   -999.250
   796.278     72.896     -0.205     40.593      3.478     -0.007   -999.250
   796.320     73.419     -0.222     40.593      3.478     -0.007   -999.250
   796.362     73.914     -0.241     40.593      3.478     -0.007   -999.250
   796.404     74.363     -0.233     40.575      3.477     -0.006   -999.250
   796.446     74.629     -0.208     40.605      3.477     -0.006   -999.250
   796.488     74.857     -0.188     40.618      3.477     -0.006   -999.250
   796.530     75.142     -0.184     40.593      3.477     -0.005   -999.250
   796.572     75.428     -0.185     40.605      3.478     -0.005   -999.250
   796.614     75.774     -0.198     40.615      3.477     -0.005   -999.250
   796.656     76.192     -0.224     40.640      3.477     -0.005   -999.250
   796.698     76.628     -0.251     40.625      3.477     -0.004   -999.250
   796.740     77.004     -0.267     40.617      3.476     -0.004   -999.250
   796.782     77.308     -0.258     40.601      3.476     -0.004   -999.250
   796.824     77.597     -0.245     40.639      3.477     -0.003   -999.250
   796.866     77.859     -0.237     40.629      3.478     -0.003   -999.250
   796.908     78.123     -0.244     40.611      3.478     -0.003   -999.250
   796.950     78.332     -0.254     40.631      3.478     -0.003   -999.250
   796.992     78.554     -0.268     40.623      3.477     -0.002   -999.250
   797.034     78.844     -0.286     40.636      3.477     -0.002   -999.250
   797.076     79.159     -0.308     40.655      3.477     -0.001   -999.250
   797.118     79.455     -0.331     40.646      3.477     -0.001   -999.250
   797.160     79.810     -0.345     40.637      3.477     -0.000   -999.250
   797.202     80.235     -0.345     40.634      3.477      0.000   -999.250
   797.244     80.670     -0.338     40.638      3.477      0.000   -999.250
   797.286     80.978     -0.338     40.632      3.476      0.001   -999.250
   797.328     80.997     -0.345     40.614      3.477      0.001   -999.250
   797.370     80.896     -0.346     40.625      3.477      0.001   -999.250
   797.412     80.777     -0.345     40.641      3.477      0.002   -999.250
   797.454     80.833     -0.346     40.650      3.478      0.002   -999.250
   797.496     80.942     -0.344     40.633      3.477      0.003   -999.250
   797.538     81.073     -0.345     40.624      3.478      0.003   -999.250
   797.580     81.227     -0.356     40.634      3.477      0.003   -999.250
   797.622     81.524     -0.351     40.621      3.478      0.004   -999.250
   797.664     81.952     -0.348     40.656      3.477      0.004   -999.250
   797.706     82.436     -0.347     40.644      3.476      0.004   -999.250
   797.748     83.017     -0.355     40.635      3.476      0.005   -999.250
   797.790     83.701     -0.370     40.628      3.475      0.005   -999.250
   797.832     84.480     -0.385     40.624      3.474      0.005   -999.250
   797.874     85.148     -0.394     40.628      3.474      0.005   -999.250
   797.916     85.639     -0.397     40.652      3.474      0.006   -999.250
   797.958     86.149     -0.393     40.653      3.474      0.006   -999.250
   798.000     86.681     -0.384     40.632      3.474      0.006   -999.250
   798.042     87.432     -0.380     40.636      3.474      0.007   -999.250
   798.084     88.120     -0.381     40.626      3.474      0.007   -999.250
   798.126     88.775     -0.379     40.617      3.475      0.007   -999.250
   798.168     89.242     -0.381     40.615      3.475      0.007   -999.250
   798.210     89.662     -0.383     40.621      3.475      0.007   -999.250
   798.252     90.170     -0.390     40.613      3.475      0.007   -999.250
   798.294     90.579     -0.407     40.640      3.475      0.007   -999.250
   798.336     90.638     -0.417     40.614      3.475      0.007   -999.250
   798.378     90.508     -0.428     40.584      3.474      0.007   -999.250
   798.420     90.249     -0.429     40.576      3.474      0.006   -999.250
   798.462     89.850     -0.422     40.611      3.474      0.006   -999.250
   798.504     89.434     -0.411     40.554      3.475      0.006   -999.250
   798.546     88.980     -0.405     40.544      3.475      0.005   -999.250
   798.588     88.586     -0.404     40.512      3.475      0.004   -999.250
   798.630     88.197     -0.411     40.515      3.475      0.004   -999.250
   798.672     87.890     -0.421     40.536      3.475      0.003   -999.250
   798.714     87.688     -0.432     40.523      3.475      0.002   -999.250
   798.756     87.408     -0.442     40.531      3.475      0.002   -999.250
   798.798     87.124     -0.449     40.536      3.475      0.001   -999.250
   798.840     86.813     -0.453     40.546      3.475      0.001   -999.250
   798.882     86.391     -0.457     40.553      3.475      0.000   -999.250
   798.924     85.869     -0.462     40.560      3.474     -0.000   -999.250
   798.966     85.186     -0.461     40.556      3.474     -0.000   -999.250
   799.008     84.440     -0.457     40.551      3.474     -0.001   -999.250
   799.050     83.715     -0.453     40.528      3.475     -0.001   -999.250
   799.092     83.011     -0.448     40.550      3.476     -0.002   -999.250
   799.134     82.335     -0.446     40.543      3.478     -0.002   -999.250
   799.176     81.543     -0.444     40.563      3.477     -0.003   -999.250
   799.218     80.760     -0.438     40.605      3.478     -0.003   -999.250
   799.260     80.046     -0.439     40.593      3.477     -0.003   -999.250
   799.302     79.354     -0.442     40.614      3.477     -0.003   -999.250
