~Version Information
VERS.          2.00                         : CWLS Log ASCII Standard - Version 2.00
WRAP.          NO                           : One line per depth step
#
~Well Information
#MNEM.UNIT     DATA                         : DESCRIPTION      
#----.----     ---------                    : -----------------
STRT .FT          0.000                     : Start
STOP .FT       1712.592                     : Stop
STEP .FT          0.042                     : Step increment
NULL .         -999.250                     : Null value
COMP .                                      : Company
WELL .                                      : Well
FLD  .                                      : Field
PROV .                                      : Province / County
CTRY .                                      : State / Country
LOC  .                                      : Location
LOC2 .                                      : Location 2
SRVC .         Weatherford                  : Service company
UWI  .                                      : Unique Well ID
LL1  .                                      : Latitude
LL2  .                                      : Longitude
DATE .         20-Mar-2008                  : Logging date
#
~Curve Information
#MNEM.UNIT     API CODES                    : CURVE DESCRIPTION
#----.----     ---------                    : -----------------
DEPT .FT       00 001 00 00                 : Logged depth
GRTH .GAPI     31 790 00 00                 : GAMMA FROM CALIPER TOOL
COLL .CPS      00 000 00 00                 : CASING COLLAR LOCATOR
TEMP .DEGC     80 660 00 00                 : BOREHOLE TEMPERATURE
CATH .         00 000 00 00                 : THREE ARM CALIPER
DIFT .         00 000 00 00                 : DIFFERENTIAL TEMPERATURE
Bit IN.e                                    : MM
#
~Parameter Information
#MNEM.UNIT     VALUE                        : DESCRIPTION      
#----.----     ---------                    : -----------------
RNID .         temp                         : Run ID
EREF .FEET                                  : Elevation of depth reference
DREF .                                      : Depth reference
GL   .FEET                                  : Ground elevation
RUN  .                                      : Run number
TDD  .FEET                                  : TD (driller)
TDL  .FEET                                  : TD (logger)
CSGD .FEET                                  : Casing bottom (driller)
CSGL .FEET                                  : Casing bottom (logger)
BS   .INCHES                                : Bit size
MUD  .                                      : Mud type
MUDD .G/C3                                  : Mud density
MUDV .CP                                    : Mud viscosity
PH   .                                      : Mud pH
FL   .ML/30MIN                              : Mud fluid loss rate
MUDS .                                      : Mud sample source
TMAX .DEGC                                  : Max recorder temperature
TIMC .DAY/HR                                : Time circulation ended
TIML .DAY/HR                                : Time logger at bottom
UNIT .                                      : Equipment ID
BASE .                                      : Equipment base location
ENG  .                                      : Recording engineer
WIT  .                                      : Witnessed by
CSGS .INCHES   0.000                        : Casing size
CSGW .LB/FT    0.00                         : Casing weight
#
~Other Information
--------------------------------------------------------------------------------

--------------------------------------------------------------------------------
~A    DEPT       GRTH       COLL       TEMP       CATH       DIFT     Bit-IN
     0.000   -999.250   -999.250   -999.250   -999.250   -999.250   -999.250
     0.042     37.518     -0.949   -999.250      3.493   -999.250   -999.250
     0.084     37.507     -1.292   -999.250      3.493   -999.250   -999.250
     0.126     37.257     -1.583   -999.250      3.493   -999.250   -999.250
     0.168     36.825     -1.845   -999.250      3.493   -999.250   -999.250
     0.210     36.437     -1.707   -999.250      3.493   -999.250   -999.250
     0.252     36.040     -1.407   -999.250      3.493   -999.250   -999.250
     0.294     35.649     -1.314   -999.250      3.492   -999.250   -999.250
     0.336     35.335     -1.322   -999.250      3.492   -999.250   -999.250
     0.378     35.079     -1.107   -999.250      3.492   -999.250   -999.250
     0.420     34.841     -0.780   -999.250      3.491   -999.250   -999.250
     0.462     34.573     -0.596   -999.250      3.491   -999.250   -999.250
     0.504     34.412     -0.537   -999.250      3.491   -999.250   -999.250
     0.546     34.341     -0.505   -999.250      3.491   -999.250   -999.250
     0.588     34.331     -0.475   -999.250      3.491   -999.250   -999.250
     0.630     34.354     -0.453   -999.250      3.490   -999.250   -999.250
     0.672     34.298     -0.445   -999.250      3.490   -999.250   -999.250
     0.714     34.308     -0.438   -999.250      3.490   -999.250   -999.250
     0.756     34.321     -0.430   -999.250      3.489   -999.250   -999.250
     0.798     34.229     -0.428   -999.250      3.489   -999.250   -999.250
     0.840     34.202     -0.423   -999.250      3.489   -999.250   -999.250
     0.882     34.139     -0.420   -999.250      3.489   -999.250   -999.250
     0.924     34.036     -0.417   -999.250      3.489   -999.250   -999.250
     0.966     33.975     -0.415   -999.250      3.489   -999.250   -999.250
     1.008     33.958     -0.415   -999.250      3.489   -999.250   -999.250
     1.050     33.853     -0.414   -999.250      3.489   -999.250   -999.250
     1.092     33.641     -0.419   -999.250      3.489   -999.250   -999.250
     1.134     33.383     -0.424   -999.250      3.488   -999.250   -999.250
     1.176     33.181     -0.430   -999.250      3.488   -999.250   -999.250
     1.218     33.043     -0.434     35.225      3.488      0.006   -999.250
     1.260     32.787     -0.438     35.219      3.488      0.006   -999.250
     1.302     32.561     -0.444     35.223      3.488      0.006   -999.250
     1.344     32.491     -0.447     35.225      3.489      0.006   -999.250
     1.386     32.493     -0.446     35.221      3.488      0.006   -999.250
     1.428     32.447     -0.445     35.222      3.488      0.005   -999.250
     1.470     32.437     -0.443     35.219      3.488      0.005   -999.250
     1.512     32.532     -0.442     35.232      3.487      0.005   -999.250
     1.554     32.641     -0.443     35.218      3.488      0.005   -999.250
     1.596     32.734     -0.441     35.225      3.487      0.005   -999.250
     1.638     32.796     -0.441     35.240      3.488      0.005   -999.250
     1.680     32.816     -0.439     35.215      3.487      0.005   -999.250
     1.722     32.914     -0.439     35.225      3.487      0.004   -999.250
     1.764     33.101     -0.441     35.226      3.488      0.004   -999.250
     1.806     33.443     -0.446     35.226      3.488      0.004   -999.250
     1.848     33.865     -0.445     35.219      3.488      0.004   -999.250
     1.890     34.289     -0.440     35.222      3.488      0.004   -999.250
     1.932     34.791     -0.437     35.225      3.487      0.004   -999.250
     1.974     35.433     -0.433     35.230      3.487      0.004   -999.250
     2.016     35.985     -0.430     35.219      3.487      0.003   -999.250
     2.058     36.507     -0.423     35.226      3.487      0.003   -999.250
     2.100     36.992     -0.411     35.231      3.487      0.003   -999.250
     2.142     37.514     -0.399     35.234      3.487      0.003   -999.250
     2.184     38.137     -0.389     35.234      3.487      0.003   -999.250
     2.226     38.619     -0.379     35.229      3.486      0.002   -999.250
     2.268     39.099     -0.367     35.230      3.486      0.002   -999.250
     2.310     39.638     -0.360     35.207      3.486      0.002   -999.250
     2.352     40.193     -0.355     35.234      3.487      0.002   -999.250
     2.394     40.682     -0.356     35.232      3.487      0.002   -999.250
     2.436     41.161     -0.355     35.222      3.487      0.002   -999.250
     2.478     41.732     -0.349     35.218      3.487      0.002   -999.250
     2.520     42.229     -0.341     35.217      3.488      0.001   -999.250
     2.562     42.713     -0.336     35.224      3.487      0.001   -999.250
     2.604     43.183     -0.332     35.225      3.487      0.001   -999.250
     2.646     43.676     -0.331     35.232      3.487      0.001   -999.250
     2.688     44.091     -0.329     35.224      3.486      0.001   -999.250
     2.730     44.421     -0.322     35.222      3.487      0.000   -999.250
     2.772     44.819     -0.317     35.230      3.487      0.000   -999.250
     2.814     45.131     -0.319     35.227      3.487      0.000   -999.250
     2.856     45.259     -0.325     35.222      3.487      0.000   -999.250
     2.898     45.331     -0.329     35.204      3.487     -0.000   -999.250
     2.940     45.367     -0.333     35.209      3.487     -0.000   -999.250
     2.982     45.291     -0.338     35.233      3.486     -0.001   -999.250
     3.024     45.123     -0.343     35.230      3.486     -0.001   -999.250
     3.066     44.972     -0.352     35.223      3.486     -0.001   -999.250
     3.108     44.858     -0.359     35.232      3.486     -0.001   -999.250
     3.150     44.695     -0.368     35.211      3.487     -0.001   -999.250
     3.192     44.431     -0.372     35.231      3.486     -0.002   -999.250
     3.234     44.104     -0.374     35.229      3.486     -0.002   -999.250
     3.276     43.784     -0.383     35.239      3.486     -0.002   -999.250
     3.318     43.412     -0.388     35.224      3.486     -0.002   -999.250
     3.360     42.949     -0.392     35.227      3.486     -0.002   -999.250
     3.402     42.540     -0.395     35.228      3.486     -0.002   -999.250
     3.444     42.128     -0.406     35.238      3.486     -0.002   -999.250
     3.486     41.728     -0.418     35.221      3.486     -0.002   -999.250
     3.528     41.378     -0.426     35.221      3.486     -0.003   -999.250
     3.570     41.048     -0.435     35.231      3.487     -0.003   -999.250
     3.612     40.883     -0.439     35.252      3.487     -0.003   -999.250
     3.654     40.779     -0.444     35.230      3.487     -0.003   -999.250
     3.696     40.655     -0.449     35.235      3.486     -0.003   -999.250
     3.738     40.609     -0.450     35.227      3.486     -0.003   -999.250
     3.780     40.701     -0.445     35.218      3.486     -0.003   -999.250
     3.822     40.845     -0.435     35.227      3.487     -0.003   -999.250
     3.864     41.080     -0.432     35.217      3.487     -0.003   -999.250
     3.906     41.618     -0.446     35.234      3.487     -0.004   -999.250
     3.948     42.098     -0.451     35.212      3.487     -0.004   -999.250
     3.990     42.605     -0.447     35.207      3.487     -0.004   -999.250
     4.032     43.164     -0.448     35.228      3.487     -0.004   -999.250
     4.074     43.837     -0.448     35.212      3.487     -0.004   -999.250
     4.116     44.442     -0.449     35.230      3.487     -0.004   -999.250
     4.158     44.986     -0.452     35.209      3.487     -0.004   -999.250
     4.200     44.035     -0.451     35.220      3.487     -0.005   -999.250
     4.242     30.920     -0.446     35.235      3.487     -0.005   -999.250
     4.284     32.671     -0.441     35.238      3.487     -0.005   -999.250
     4.326     32.964     -0.441     35.237      3.487     -0.005   -999.250
