~Version Information
VERS.          2.00                         : CWLS Log ASCII Standard - Version 2.00
WRAP.          NO                           : One line per depth step
#
~Well Information
#MNEM.UNIT     DATA                         : DESCRIPTION      
#----.----     ---------                    : -----------------
STRT .FT          0.000                     : Start
STOP .FT       1712.592                     : Stop
STEP .FT          0.042                     : Step increment
NULL .         -999.250                     : Null value
COMP .                                      : Company
WELL .                                      : Well
FLD  .                                      : Field
PROV .                                      : Province / County
CTRY .                                      : State / Country
LOC  .                                      : Location
LOC2 .                                      : Location 2
SRVC .         Weatherford                  : Service company
UWI  .                                      : Unique Well ID
LL1  .                                      : Latitude
LL2  .                                      : Longitude
DATE .         20-Mar-2008                  : Logging date
#
~Curve Information
#MNEM.UNIT     API CODES                    : CURVE DESCRIPTION
#----.----     ---------                    : -----------------
DEPT .FT       00 001 00 00                 : Logged depth
GRTH .GAPI     31 790 00 00                 : GAMMA FROM CALIPER TOOL
COLL .CPS      00 000 00 00                 : CASING COLLAR LOCATOR
TEMP .DEGC     80 660 00 00                 : BOREHOLE TEMPERATURE
CATH .         00 000 00 00                 : THREE ARM CALIPER
DIFT .         00 000 00 00                 : DIFFERENTIAL TEMPERATURE
Bit IN.e                                    : MM
#
~Parameter Information
#MNEM.UNIT     VALUE                        : DESCRIPTION      
#----.----     ---------                    : -----------------
RNID .         temp                         : Run ID
EREF .FEET                                  : Elevation of depth reference
DREF .                                      : Depth reference
GL   .FEET                                  : Ground elevation
RUN  .                                      : Run number
TDD  .FEET                                  : TD (driller)
TDL  .FEET                                  : TD (logger)
CSGD .FEET                                  : Casing bottom (driller)
CSGL .FEET                                  : Casing bottom (logger)
BS   .INCHES                                : Bit size
MUD  .                                      : Mud type
MUDD .G/C3                                  : Mud density
MUDV .CP                                    : Mud viscosity
PH   .                                      : Mud pH
FL   .ML/30MIN                              : Mud fluid loss rate
MUDS .                                      : Mud sample source
TMAX .DEGC                                  : Max recorder temperature
TIMC .DAY/HR                                : Time circulation ended
TIML .DAY/HR                                : Time logger at bottom
UNIT .                                      : Equipment ID
BASE .                                      : Equipment base location
ENG  .                                      : Recording engineer
WIT  .                                      : Witnessed by
CSGS .INCHES   0.000                        : Casing size
CSGW .LB/FT    0.00                         : Casing weight
#
~Other Information
--------------------------------------------------------------------------------

--------------------------------------------------------------------------------
~A    DEPT       GRTH       COLL       TEMP       CATH       DIFT     Bit-IN
# ...
   904.176    109.178     -0.228     41.558      3.475      0.006   -999.250
   904.218    109.356     -0.241     41.536      3.475      0.006   -999.250
   904.260    109.487     -0.271     41.521      3.475      0.006   -999.250
   904.302    109.672     -0.310     41.531      3.475      0.006   -999.250
   904.344    109.628     -0.339     41.555      3.475      0.006   -999.250
   904.386    109.407     -0.363     41.529      3.475      0.006   -999.250
   904.428    109.092     -0.379     41.517      3.475      0.006   -999.250
   904.470    108.747     -0.382     41.541      3.476      0.005   -999.250
   904.512    108.398     -0.371     41.523      3.476      0.005   -999.250
   904.554    107.999     -0.358     41.519      3.476      0.005   -999.250
   904.596    107.469     -0.370     41.531      3.477      0.005   -999.250
   904.638    106.946     -0.394     41.539      3.476      0.005   -999.250
   904.680    106.687     -0.411     41.559      3.476      0.004   -999.250
   904.722    106.464     -0.422     41.534      3.476      0.005   -999.250
   904.764    106.356     -0.422     41.532      3.475      0.004   -999.250
   904.806    106.239     -0.419     41.542      3.475      0.004   -999.250
   904.848    105.946     -0.416     41.509      3.476      0.005   -999.250
   904.890    105.740     -0.406     41.548      3.476      0.004   -999.250
   904.932    105.662     -0.393     41.541      3.477      0.004   -999.250
   904.974    105.470     -0.376     41.541      3.477      0.004   -999.250
   905.016    105.140     -0.372     41.544      3.476      0.004   -999.250
   905.058    104.781     -0.372     41.530      3.476      0.005   -999.250
   905.100    104.484     -0.373     41.539      3.476      0.005   -999.250
   905.142    104.168     -0.377     41.531      3.476      0.005   -999.250
   905.184    103.844     -0.384     41.566      3.476      0.005   -999.250
   905.226    103.349     -0.389     41.565      3.477      0.005   -999.250
   905.268    102.812     -0.388     41.539      3.477      0.005   -999.250
   905.310    102.484     -0.374     41.526      3.477      0.005   -999.250
   905.352    102.186     -0.356     41.538      3.477      0.005   -999.250
   905.394    101.771     -0.342     41.509      3.477      0.005   -999.250
   905.436    101.168     -0.337     41.530      3.477      0.005   -999.250
   905.478    100.477     -0.339     41.524      3.477      0.005   -999.250
   905.520     99.860     -0.348     41.531      3.477      0.004   -999.250
   905.562     99.332     -0.361     41.551      3.477      0.004   -999.250
   905.604     98.784     -0.373     41.529      3.477      0.004   -999.250
   905.646     98.060     -0.388     41.548      3.477      0.004   -999.250
   905.688     97.463     -0.394     41.535      3.477      0.004   -999.250
   905.730     96.982     -0.396     41.550      3.476      0.004   -999.250
   905.772     96.732     -0.401     41.567      3.476      0.004   -999.250
   905.814     96.590     -0.419     41.528      3.476      0.005   -999.250
   905.856     96.673     -0.440     41.542      3.476      0.004   -999.250
   905.898     96.752     -0.455     41.513      3.476      0.004   -999.250
   905.940     97.034     -0.457     41.526      3.476      0.004   -999.250
   905.982     97.372     -0.453     41.546      3.475      0.003   -999.250
   906.024     97.676     -0.453     41.536      3.474      0.003   -999.250
   906.066     97.976     -0.444     41.541      3.474      0.003   -999.250
   906.108     98.407     -0.428     41.568      3.474      0.003   -999.250
   906.150     98.802     -0.418     41.538      3.474      0.003   -999.250
   906.192     99.317     -0.410     41.566      3.474      0.003   -999.250
   906.234    100.017     -0.408     41.528      3.473      0.003   -999.250
   906.276    100.567     -0.405     41.561      3.473      0.003   -999.250
   906.318    101.200     -0.398     41.538      3.474      0.003   -999.250
   906.360    101.893     -0.390     41.518      3.474      0.002   -999.250
   906.402    102.434     -0.385     41.550      3.473      0.002   -999.250
   906.444    102.780     -0.373     41.521      3.473      0.002   -999.250
   906.486    102.995     -0.360     41.529      3.473      0.002   -999.250
   906.528    102.962     -0.341     41.521      3.473      0.002   -999.250
   906.570    102.892     -0.329     41.518      3.473      0.002   -999.250
   906.612    102.894     -0.330     41.529      3.473      0.002   -999.250
   906.654    102.677     -0.338     41.538      3.473      0.002   -999.250
   906.696    102.158     -0.345     41.535      3.473      0.002   -999.250
   906.738    101.544     -0.359     41.510      3.473      0.002   -999.250
   906.780    100.848     -0.377     41.518      3.473      0.002   -999.250
   906.822    100.289     -0.390     41.560      3.474      0.002   -999.250
   906.864     99.745     -0.404     41.506      3.474      0.002   -999.250
   906.906     99.128     -0.409     41.515      3.474      0.001   -999.250
   906.948     98.409     -0.412     41.518      3.474      0.001   -999.250
   906.990     97.711     -0.424     41.514      3.473      0.001   -999.250
   907.032     97.161     -0.432     41.523      3.473      0.001   -999.250
   907.074     96.501     -0.434     41.519      3.473      0.001   -999.250
   907.116     95.848     -0.442     41.531      3.474      0.002   -999.250
   907.158     95.363     -0.448     41.533      3.474      0.002   -999.250
   907.200     95.037     -0.450     41.549      3.474      0.002   -999.250
   907.242     94.727     -0.453     41.545      3.473      0.002   -999.250
   907.284     94.184     -0.452     41.552      3.474      0.003   -999.250
   907.326     93.549     -0.456     41.537      3.475      0.003   -999.250
   907.368     92.974     -0.453     41.538      3.476      0.003   -999.250
   907.410     92.494     -0.447     41.538      3.476      0.003   -999.250
   907.452     92.277     -0.441     41.524      3.476      0.003   -999.250
   907.494     92.024     -0.437     41.507      3.476      0.003   -999.250
   907.536     91.804     -0.435     41.546      3.476      0.004   -999.250
   907.578     91.540     -0.429     41.530      3.476      0.004   -999.250
   907.620     91.492     -0.427     41.511      3.477      0.004   -999.250
   907.662     91.527     -0.425     41.524      3.477      0.004   -999.250
   907.704     91.535     -0.422     41.534      3.477      0.004   -999.250
   907.746     91.604     -0.425     41.562      3.477      0.004   -999.250
   907.788     91.702     -0.423     41.533      3.477      0.004   -999.250
   907.830     91.563     -0.417     41.518      3.477      0.004   -999.250
   907.872     91.166     -0.411     41.498      3.477      0.004   -999.250
   907.914     90.767     -0.413     41.524      3.477      0.003   -999.250
   907.956     90.348     -0.411     41.539      3.477      0.003   -999.250
   907.998     89.858     -0.412     41.519      3.477      0.003   -999.250
   908.040     89.435     -0.414     41.516      3.477      0.003   -999.250
   908.082     88.871     -0.417     41.529      3.477      0.003   -999.250
   908.124     88.294     -0.429     41.546      3.477      0.003   -999.250
   908.166     87.760     -0.444     41.543      3.477      0.003   -999.250
   908.208     87.159     -0.451     41.521      3.476      0.003   -999.250
   908.250     86.567     -0.458     41.529      3.476      0.003   -999.250
   908.292     85.970     -0.460     41.538      3.476      0.003   -999.250
   908.334     85.301     -0.461     41.542      3.476      0.003   -999.250
   908.376     84.786     -0.470     41.535      3.477      0.003   -999.250
   908.418     84.401     -0.467     41.525      3.477      0.003   -999.250
   908.460     84.191     -0.465     41.532      3.476      0.003   -999.250
   908.502     84.110     -0.465     41.527      3.476      0.003   -999.250
