~Version Information
VERS.          2.00                         : CWLS Log ASCII Standard - Version 2.00
WRAP.          NO                           : One line per depth step
#
~Well Information
#MNEM.UNIT     DATA                         : DESCRIPTION      
#----.----     ---------                    : -----------------
STRT .FT          0.000                     : Start
STOP .FT       1712.592                     : Stop
STEP .FT          0.042                     : Step increment
NULL .         -999.250                     : Null value
COMP .                                      : Company
WELL .                                      : Well
FLD  .                                      : Field
PROV .                                      : Province / County
CTRY .                                      : State / Country
LOC  .                                      : Location
LOC2 .                                      : Location 2
SRVC .         Weatherford                  : Service company
UWI  .                                      : Unique Well ID
LL1  .                                      : Latitude
LL2  .                                      : Longitude
DATE .         20-Mar-2008                  : Logging date
#
~Curve Information
#MNEM.UNIT     API CODES                    : CURVE DESCRIPTION
#----.----     ---------                    : -----------------
DEPT .FT       00 001 00 00                 : Logged depth
GRTH .GAPI     31 790 00 00                 : GAMMA FROM CALIPER TOOL
COLL .CPS      00 000 00 00                 : CASING COLLAR LOCATOR
TEMP .DEGC     80 660 00 00                 : BOREHOLE TEMPERATURE
CATH .         00 000 00 00                 : THREE ARM CALIPER
DIFT .         00 000 00 00                 : DIFFERENTIAL TEMPERATURE
Bit IN.e                                    : MM
#
~Parameter Information
#MNEM.UNIT     VALUE                        : DESCRIPTION      
#----.----     ---------                    : -----------------
RNID .         temp                         : Run ID
EREF .FEET                                  : Elevation of depth reference
DREF .                                      : Depth reference
GL   .FEET                                  : Ground elevation
RUN  .                                      : Run number
TDD  .FEET                                  : TD (driller)
TDL  .FEET                                  : TD (logger)
CSGD .FEET                                  : Casing bottom (driller)
CSGL .FEET                                  : Casing bottom (logger)
BS   .INCHES                                : Bit size
MUD  .                                      : Mud type
MUDD .G/C3                                  : Mud density
MUDV .CP                                    : Mud viscosity
PH   .                                      : Mud pH
FL   .ML/30MIN                              : Mud fluid loss rate
MUDS .                                      : Mud sample source
TMAX .DEGC                                  : Max recorder temperature
TIMC .DAY/HR                                : Time circulation ended
TIML .DAY/HR                                : Time logger at bottom
UNIT .                                      : Equipment ID
BASE .                                      : Equipment base location
ENG  .                                      : Recording engineer
WIT  .                                      : Witnessed by
CSGS .INCHES   0.000                        : Casing size
CSGW .LB/FT    0.00                         : Casing weight
#
~Other Information
--------------------------------------------------------------------------------

--------------------------------------------------------------------------------
~A    DEPT       GRTH       COLL       TEMP       CATH       DIFT     Bit-IN
# ...
  1017.744     58.468     -0.564     42.629      3.476     -0.016   -999.250
  1017.786     57.858     -0.552     42.624      3.476     -0.015   -999.250
  1017.828     57.340     -0.540     42.648      3.477     -0.015   -999.250
  1017.870     56.914     -0.532     42.634      3.477     -0.015   -999.250
  1017.912     56.452     -0.522     42.633      3.477     -0.014   -999.250
  1017.954     56.122     -0.513     42.634      3.477     -0.014   -999.250
  1017.996     55.794     -0.504     42.644      3.477     -0.014   -999.250
  1018.038     55.554     -0.498     42.647      3.477     -0.013   -999.250
  1018.080     55.366     -0.495     42.657      3.477     -0.013   -999.250
  1018.122     55.201     -0.488     42.674      3.476     -0.012   -999.250
  1018.164     54.939     -0.480     42.652      3.476     -0.012   -999.250
  1018.206     54.659     -0.468     42.622      3.476     -0.012   -999.250
  1018.248     54.510     -0.460     42.631      3.476     -0.011   -999.250
  1018.290     54.520     -0.457     42.636      3.477     -0.011   -999.250
  1018.332     54.602     -0.452     42.655      3.478     -0.011   -999.250
  1018.374     54.663     -0.447     42.629      3.478     -0.010   -999.250
  1018.416     54.860     -0.437     42.627      3.478     -0.010   -999.250
  1018.458     54.958     -0.428     42.631      3.478     -0.010   -999.250
  1018.500     54.816     -0.426     42.629      3.478     -0.010   -999.250
  1018.542     54.630     -0.424     42.628      3.477     -0.009   -999.250
  1018.584     54.642     -0.421     42.627      3.478     -0.009   -999.250
  1018.626     54.741     -0.424     42.632      3.478     -0.009   -999.250
  1018.668     54.940     -0.423     42.644      3.478     -0.008   -999.250
  1018.710     55.151     -0.421     42.637      3.478     -0.008   -999.250
  1018.752     55.422     -0.418     42.627      3.477     -0.008   -999.250
  1018.794     55.775     -0.412     42.612      3.477     -0.007   -999.250
  1018.836     56.162     -0.407     42.619      3.477     -0.007   -999.250
  1018.878     56.494     -0.405     42.644      3.478     -0.007   -999.250
  1018.920     56.803     -0.405     42.642      3.478     -0.007   -999.250
  1018.962     57.134     -0.405     42.648      3.478     -0.007   -999.250
  1019.004     57.371     -0.408     42.647      3.477     -0.006   -999.250
  1019.046     57.564     -0.411     42.629      3.477     -0.006   -999.250
  1019.088     57.718     -0.414     42.648      3.477     -0.006   -999.250
  1019.130     57.804     -0.419     42.659      3.477     -0.005   -999.250
  1019.172     58.113     -0.420     42.644      3.477     -0.005   -999.250
  1019.214     58.496     -0.413     42.647      3.477     -0.005   -999.250
  1019.256     58.825     -0.414     42.654      3.478     -0.004   -999.250
  1019.298     59.004     -0.417     42.663      3.477     -0.004   -999.250
  1019.340     59.164     -0.419     42.663      3.477     -0.003   -999.250
  1019.382     59.199     -0.424     42.647      3.477     -0.003   -999.250
  1019.424     59.378     -0.419     42.653      3.477     -0.003   -999.250
  1019.466     59.437     -0.428     42.666      3.477     -0.002   -999.250
  1019.508     59.553     -0.456     42.653      3.477     -0.002   -999.250
  1019.550     59.882     -0.499     42.663      3.477     -0.001   -999.250
  1019.592     60.325     -0.540     42.671      3.477     -0.001   -999.250
  1019.634     60.782     -0.555     42.667      3.477     -0.001   -999.250
  1019.676     61.272     -0.548     42.654      3.477     -0.000   -999.250
  1019.718     61.939     -0.522     42.702      3.476      0.000   -999.250
  1019.760     62.625     -0.498     42.689      3.476      0.001   -999.250
  1019.802     63.244     -0.477     42.666      3.476      0.001   -999.250
  1019.844     63.773     -0.460     42.659      3.476      0.002   -999.250
  1019.886     64.280     -0.451     42.679      3.476      0.002   -999.250
  1019.928     64.776     -0.451     42.666      3.475      0.002   -999.250
  1019.970     65.170     -0.449     42.656      3.476      0.003   -999.250
  1020.012     65.541     -0.445     42.645      3.476      0.003   -999.250
  1020.054     65.770     -0.433     42.673      3.476      0.003   -999.250
  1020.096     66.150     -0.438     42.662      3.476      0.003   -999.250
  1020.138     66.555     -0.454     42.660      3.475      0.004   -999.250
  1020.180     67.019     -0.458     42.646      3.475      0.004   -999.250
  1020.222     67.326     -0.431     42.638      3.475      0.004   -999.250
  1020.264     67.541     -0.388     42.624      3.476      0.004   -999.250
  1020.306     67.708     -0.353     42.630      3.476      0.004   -999.250
  1020.348     67.782     -0.344     42.645      3.477      0.005   -999.250
  1020.390     67.749     -0.357     42.646      3.476      0.005   -999.250
  1020.432     67.710     -0.376     42.634      3.476      0.005   -999.250
  1020.474     67.843     -0.390     42.645      3.476      0.005   -999.250
  1020.516     68.080     -0.406     42.646      3.476      0.005   -999.250
  1020.558     68.242     -0.422     42.626      3.476      0.005   -999.250
  1020.600     68.310     -0.427     42.638      3.476      0.005   -999.250
  1020.642     68.510     -0.417     42.660      3.476      0.006   -999.250
  1020.684     68.656     -0.404     42.649      3.476      0.006   -999.250
  1020.726     68.868     -0.406     42.642      3.476      0.006   -999.250
  1020.768     68.881     -0.416     42.654      3.475      0.006   -999.250
  1020.810     68.661     -0.433     42.625      3.473      0.006   -999.250
  1020.852     68.357     -0.461     42.633      3.471      0.006   -999.250
  1020.894     68.085     -0.499     42.658      3.469      0.007   -999.250
  1020.936     67.710     -0.554     42.662      3.468      0.007   -999.250
  1020.978     67.263     -0.611     42.629      3.469      0.007   -999.250
  1021.020     66.817     -0.660     42.630      3.469      0.007   -999.250
  1021.062     66.507     -0.699     42.629      3.469      0.007   -999.250
  1021.104     66.210     -0.734     42.617      3.469      0.007   -999.250
  1021.146     65.743     -0.769     42.599      3.469      0.007   -999.250
  1021.188     65.081     -0.794     42.595      3.468      0.007   -999.250
  1021.230     64.468     -0.810     42.625      3.469      0.007   -999.250
  1021.272     63.909     -0.788     42.631      3.469      0.007   -999.250
  1021.314     63.281     -0.742     42.628      3.469      0.007   -999.250
  1021.356     62.626     -0.731     42.608      3.469      0.007   -999.250
  1021.398     61.854     -0.798     42.604      3.468      0.007   -999.250
  1021.440     60.964     -0.876     42.620      3.468      0.007   -999.250
  1021.482     60.062     -0.889     42.619      3.468      0.007   -999.250
  1021.524     59.175     -0.857     42.621      3.468      0.007   -999.250
  1021.566     58.303     -0.814     42.631      3.468      0.007   -999.250
  1021.608     57.370     -0.763     42.603      3.468      0.007   -999.250
  1021.650     56.455     -0.701     42.615      3.468      0.007   -999.250
  1021.692     55.461     -0.627     42.636      3.468      0.007   -999.250
  1021.734     54.365     -0.550     42.633      3.468      0.007   -999.250
  1021.776     53.316     -0.485     42.619      3.468      0.007   -999.250
  1021.818     52.375     -0.424     42.641      3.468      0.007   -999.250
  1021.860     51.526     -0.382     42.643      3.468      0.007   -999.250
  1021.902     50.746     -0.354     42.634      3.467      0.007   -999.250
  1021.944     50.013     -0.347     42.617      3.468      0.007   -999.250
  1021.986     49.322     -0.386     42.596      3.468      0.007   -999.250
  1022.028     48.586     -0.428     42.618      3.468      0.007   -999.250
  1022.070     47.773     -0.407     42.643      3.468      0.007   -999.250
