~Version Information
VERS.          2.00                         : CWLS Log ASCII Standard - Version 2.00
WRAP.          NO                           : One line per depth step
#
~Well Information
#MNEM.UNIT     DATA                         : DESCRIPTION      
#----.----     ---------                    : -----------------
STRT .FT          0.000                     : Start
STOP .FT       1712.592                     : Stop
STEP .FT          0.042                     : Step increment
NULL .         -999.250                     : Null value
COMP .                                      : Company
WELL .                                      : Well
FLD  .                                      : Field
PROV .                                      : Province / County
CTRY .                                      : State / Country
LOC  .                                      : Location
LOC2 .                                      : Location 2
SRVC .         Weatherford                  : Service company
UWI  .                                      : Unique Well ID
LL1  .                                      : Latitude
LL2  .                                      : Longitude
DATE .         20-Mar-2008                  : Logging date
#
~Curve Information
#MNEM.UNIT     API CODES                    : CURVE DESCRIPTION
#----.----     ---------                    : -----------------
DEPT .FT       00 001 00 00                 : Logged depth
GRTH .GAPI     31 790 00 00                 : GAMMA FROM CALIPER TOOL
COLL .CPS      00 000 00 00                 : CASING COLLAR LOCATOR
TEMP .DEGC     80 660 00 00                 : BOREHOLE TEMPERATURE
CATH .         00 000 00 00                 : THREE ARM CALIPER
DIFT .         00 000 00 00                 : DIFFERENTIAL TEMPERATURE
Bit IN.e                                    : MM
#
~Parameter Information
#MNEM.UNIT     VALUE                        : DESCRIPTION      
#----.----     ---------                    : -----------------
RNID .         temp                         : Run ID
EREF .FEET                                  : Elevation of depth reference
DREF .                                      : Depth reference
GL   .FEET                                  : Ground elevation
RUN  .                                      : Run number
TDD  .FEET                                  : TD (driller)
TDL  .FEET                                  : TD (logger)
CSGD .FEET                                  : Casing bottom (driller)
CSGL .FEET                                  : Casing bottom (logger)
BS   .INCHES                                : Bit size
MUD  .                                      : Mud type
MUDD .G/C3                                  : Mud density
MUDV .CP                                    : Mud viscosity
PH   .                                      : Mud pH
FL   .ML/30MIN                              : Mud fluid loss rate
MUDS .                                      : Mud sample source
TMAX .DEGC                                  : Max recorder temperature
TIMC .DAY/HR                                : Time circulation ended
TIML .DAY/HR                                : Time logger at bottom
UNIT .                                      : Equipment ID
BASE .                                      : Equipment base location
ENG  .                                      : Recording engineer
WIT  .                                      : Witnessed by
CSGS .INCHES   0.000                        : Casing size
CSGW .LB/FT    0.00                         : Casing weight
#
~Other Information
--------------------------------------------------------------------------------

--------------------------------------------------------------------------------
~A    DEPT       GRTH       COLL       TEMP       CATH       DIFT     Bit-IN
# ...
   340.704     73.423     -0.412     36.419      3.482     -0.002   -999.250
   340.746     73.439     -0.426     36.431      3.481     -0.002   -999.250
   340.788     73.355     -0.465     36.447      3.481     -0.002   -999.250
   340.830     73.324     -0.496     36.428      3.481     -0.002   -999.250
   340.872     73.432     -0.497     36.414      3.481     -0.002   -999.250
   340.914     73.576     -0.487     36.417      3.481     -0.003   -999.250
   340.956     73.537     -0.477     36.425      3.481     -0.003   -999.250
   340.998     73.314     -0.451     36.415      3.481     -0.004   -999.250
   341.040     72.996     -0.444     36.425      3.482     -0.004   -999.250
   341.082     72.622     -0.518     36.435      3.481     -0.005   -999.250
   341.124     72.374     -0.603     36.436      3.481     -0.005   -999.250
   341.166     72.132     -0.606     36.434      3.482     -0.005   -999.250
   341.208     71.846     -0.535     36.416      3.482     -0.005   -999.250
   341.250     71.364     -0.478     36.426      3.483     -0.006   -999.250
   341.292     70.803     -0.464     36.401      3.483     -0.006   -999.250
   341.334     70.172     -0.475     36.415      3.483     -0.007   -999.250
   341.376     69.518     -0.485     36.455      3.483     -0.007   -999.250
   341.418     68.841     -0.470     36.459      3.483     -0.007   -999.250
   341.460     68.248     -0.433     36.461      3.483     -0.007   -999.250
   341.502     67.649     -0.396     36.489      3.482     -0.007   -999.250
   341.544     67.043     -0.386     36.483      3.482     -0.007   -999.250
   341.586     66.474     -0.398     36.476      3.482     -0.007   -999.250
   341.628     65.971     -0.416     36.461      3.483     -0.007   -999.250
   341.670     65.679     -0.450     36.469      3.484     -0.007   -999.250
   341.712     65.540     -0.488     36.485      3.485     -0.007   -999.250
   341.754     65.490     -0.467     36.467      3.486     -0.007   -999.250
   341.796     65.377     -0.409     36.485      3.486     -0.007   -999.250
   341.838     65.172     -0.399     36.491      3.486     -0.007   -999.250
   341.880     64.962     -0.480     36.492      3.487     -0.007   -999.250
   341.922     64.801     -0.562     36.490      3.487     -0.007   -999.250
   341.964     64.663     -0.591     36.490      3.487     -0.007   -999.250
   342.006     64.535     -0.583     36.483      3.488     -0.007   -999.250
   342.048     64.442     -0.565     36.487      3.487     -0.007   -999.250
   342.090     64.396     -0.551     36.495      3.487     -0.007   -999.250
   342.132     64.264     -0.553     36.482      3.487     -0.007   -999.250
   342.174     63.995     -0.558     36.470      3.487     -0.007   -999.250
   342.216     63.715     -0.559     36.459      3.488     -0.007   -999.250
   342.258     63.385     -0.547     36.456      3.488     -0.007   -999.250
   342.300     63.068     -0.510     36.490      3.488     -0.007   -999.250
   342.342     62.728     -0.467     36.489      3.488     -0.007   -999.250
   342.384     62.322     -0.436     36.465      3.488     -0.007   -999.250
   342.426     61.984     -0.414     36.482      3.488     -0.006   -999.250
   342.468     61.572     -0.394     36.492      3.488     -0.006   -999.250
   342.510     61.352     -0.375     36.468      3.488     -0.006   -999.250
   342.552     61.275     -0.348     36.482      3.488     -0.006   -999.250
   342.594     61.169     -0.320     36.494      3.487     -0.006   -999.250
   342.636     61.090     -0.308     36.498      3.488     -0.006   -999.250
   342.678     61.067     -0.318     36.510      3.487     -0.006   -999.250
   342.720     60.992     -0.359     36.494      3.487     -0.005   -999.250
   342.762     60.952     -0.425     36.476      3.488     -0.005   -999.250
   342.804     61.018     -0.492     36.488      3.488     -0.005   -999.250
   342.846     61.292     -0.539     36.493      3.488     -0.005   -999.250
   342.888     61.687     -0.575     36.488      3.488     -0.005   -999.250
   342.930     62.077     -0.609     36.506      3.488     -0.005   -999.250
   342.972     62.327     -0.655     36.508      3.487     -0.004   -999.250
   343.014     62.587     -0.715     36.487      3.486     -0.004   -999.250
   343.056     62.931     -0.759     36.478      3.485     -0.004   -999.250
   343.098     63.237     -0.795     36.492      3.484     -0.004   -999.250
   343.140     63.545     -0.817     36.476      3.484     -0.004   -999.250
   343.182     63.949     -0.834     36.472      3.483     -0.004   -999.250
   343.224     64.280     -0.864     36.485      3.483     -0.004   -999.250
   343.266     64.559     -0.902     36.473      3.482     -0.004   -999.250
   343.308     64.870     -0.926     36.478      3.482     -0.004   -999.250
   343.350     65.365     -0.918     36.476      3.482     -0.004   -999.250
   343.392     65.967     -0.891     36.464      3.483     -0.004   -999.250
   343.434     66.564     -0.849     36.484      3.483     -0.004   -999.250
   343.476     67.041     -0.799     36.498      3.483     -0.004   -999.250
   343.518     67.492     -0.743     36.506      3.483     -0.004   -999.250
   343.560     67.951     -0.690     36.512      3.482     -0.003   -999.250
   343.602     68.434     -0.623     36.504      3.481     -0.003   -999.250
   343.644     68.977     -0.517     36.496      3.480     -0.003   -999.250
   343.686     69.405     -0.424     36.486      3.480     -0.002   -999.250
   343.728     69.725     -0.387     36.512      3.480     -0.002   -999.250
   343.770     70.037     -0.426     36.499      3.480     -0.002   -999.250
   343.812     70.382     -0.459     36.494      3.480     -0.002   -999.250
   343.854     70.619     -0.425     36.504      3.480     -0.002   -999.250
   343.896     70.910     -0.337     36.491      3.481     -0.001   -999.250
   343.938     71.242     -0.258     36.488      3.480     -0.001   -999.250
   343.980     71.595     -0.232     36.497      3.480     -0.001   -999.250
   344.022     71.808     -0.260     36.504      3.480     -0.001   -999.250
   344.064     71.754     -0.294     36.500      3.480     -0.000   -999.250
   344.106     71.727     -0.296     36.492      3.480     -0.000   -999.250
   344.148     71.849     -0.277     36.488      3.480     -0.000   -999.250
   344.190     71.930     -0.238     36.471      3.480     -0.000   -999.250
   344.232     71.922     -0.195     36.479      3.480     -0.000   -999.250
   344.274     71.742     -0.180     36.492      3.480     -0.000   -999.250
   344.316     71.553     -0.236     36.497      3.480     -0.000   -999.250
   344.358     71.504     -0.336     36.506      3.480     -0.000   -999.250
   344.400     71.617     -0.404     36.510      3.480     -0.000   -999.250
   344.442     71.629     -0.383     36.493      3.480     -0.000   -999.250
   344.484     71.460     -0.323     36.501      3.481     -0.000   -999.250
   344.526     71.072     -0.302     36.499      3.481     -0.000   -999.250
   344.568     70.551     -0.310     36.497      3.481     -0.000   -999.250
   344.610     69.952     -0.323     36.508      3.481     -0.000   -999.250
   344.652     69.321     -0.320     36.512      3.480     -0.000   -999.250
   344.694     68.690     -0.305     36.485      3.480     -0.000   -999.250
   344.736     68.139     -0.293     36.486      3.479     -0.000   -999.250
   344.778     67.723     -0.299     36.503      3.479     -0.000   -999.250
   344.820     67.173     -0.321     36.508      3.480     -0.000   -999.250
   344.862     66.606     -0.360     36.499      3.480     -0.000   -999.250
   344.904     66.136     -0.410     36.505      3.482     -0.000   -999.250
   344.946     65.849     -0.457     36.484      3.485     -0.000   -999.250
   344.988     65.771     -0.484     36.440      3.487     -0.000   -999.250
   345.030     65.652     -0.484     36.443      3.490     -0.001   -999.250
