~Version Information
VERS.          2.00                         : CWLS Log ASCII Standard - Version 2.00
WRAP.          NO                           : One line per depth step
#
~Well Information
#MNEM.UNIT     DATA                         : DESCRIPTION      
#----.----     ---------                    : -----------------
STRT .FT          0.000                     : Start
STOP .FT       1712.592                     : Stop
STEP .FT          0.042                     : Step increment
NULL .         -999.250                     : Null value
COMP .                                      : Company
WELL .                                      : Well
FLD  .                                      : Field
PROV .                                      : Province / County
CTRY .                                      : State / Country
LOC  .                                      : Location
LOC2 .                                      : Location 2
SRVC .         Weatherford                  : Service company
UWI  .                                      : Unique Well ID
LL1  .                                      : Latitude
LL2  .                                      : Longitude
DATE .         20-Mar-2008                  : Logging date
#
~Curve Information
#MNEM.UNIT     API CODES                    : CURVE DESCRIPTION
#----.----     ---------                    : -----------------
DEPT .FT       00 001 00 00                 : Logged depth
GRTH .GAPI     31 790 00 00                 : GAMMA FROM CALIPER TOOL
COLL .CPS      00 000 00 00                 : CASING COLLAR LOCATOR
TEMP .DEGC     80 660 00 00                 : BOREHOLE TEMPERATURE
CATH .         00 000 00 00                 : THREE ARM CALIPER
DIFT .         00 000 00 00                 : DIFFERENTIAL TEMPERATURE
Bit IN.e                                    : MM
#
~Parameter Information
#MNEM.UNIT     VALUE                        : DESCRIPTION      
#----.----     ---------                    : -----------------
RNID .         temp                         : Run ID
EREF .FEET                                  : Elevation of depth reference
DREF .                                      : Depth reference
GL   .FEET                                  : Ground elevation
RUN  .                                      : Run number
TDD  .FEET                                  : TD (driller)
TDL  .FEET                                  : TD (logger)
CSGD .FEET                                  : Casing bottom (driller)
CSGL .FEET                                  : Casing bottom (logger)
BS   .INCHES                                : Bit size
MUD  .                                      : Mud type
MUDD .G/C3                                  : Mud density
MUDV .CP                                    : Mud viscosity
PH   .                                      : Mud pH
FL   .ML/30MIN                              : Mud fluid loss rate
MUDS .                                      : Mud sample source
TMAX .DEGC                                  : Max recorder temperature
TIMC .DAY/HR                                : Time circulation ended
TIML .DAY/HR                                : Time logger at bottom
UNIT .                                      : Equipment ID
BASE .                                      : Equipment base location
ENG  .                                      : Recording engineer
WIT  .                                      : Witnessed by
CSGS .INCHES   0.000                        : Casing size
CSGW .LB/FT    0.00                         : Casing weight
#
~Other Information
--------------------------------------------------------------------------------

--------------------------------------------------------------------------------
~A    DEPT       GRTH       COLL       TEMP       CATH       DIFT     Bit-IN
# ...
  1131.312    106.099     -0.138     43.689      3.475     -0.011   -999.250
  1131.354    106.293     -0.178     43.680      3.476     -0.010   -999.250
  1131.396    106.582     -0.201     43.665      3.475     -0.010   -999.250
  1131.438    106.984     -0.218     43.674      3.475     -0.010   -999.250
  1131.480    107.315     -0.232     43.662      3.475     -0.010   -999.250
  1131.522    107.707     -0.245     43.683      3.475     -0.010   -999.250
  1131.564    108.135     -0.255     43.707      3.475     -0.010   -999.250
  1131.606    108.597     -0.269     43.690      3.476     -0.009   -999.250
  1131.648    109.144     -0.279     43.677      3.475     -0.009   -999.250
  1131.690    109.651     -0.290     43.676      3.475     -0.009   -999.250
  1131.732    110.299     -0.300     43.685      3.475     -0.009   -999.250
  1131.774    110.744     -0.310     43.679      3.475     -0.008   -999.250
  1131.816    111.159     -0.319     43.690      3.475     -0.008   -999.250
  1131.858    111.568     -0.330     43.695      3.475     -0.007   -999.250
  1131.900    112.072     -0.344     43.709      3.475     -0.007   -999.250
  1131.942    112.621     -0.358     43.720      3.475     -0.006   -999.250
  1131.984    113.183     -0.369     43.683      3.476     -0.006   -999.250
  1132.026    113.586     -0.372     43.706      3.476     -0.005   -999.250
  1132.068    113.924     -0.375     43.713      3.476     -0.005   -999.250
  1132.110    114.505     -0.383     43.696      3.476     -0.004   -999.250
  1132.152    115.177     -0.391     43.709      3.476     -0.003   -999.250
  1132.194    115.659     -0.395     43.705      3.476     -0.003   -999.250
  1132.236    116.036     -0.399     43.692      3.476     -0.002   -999.250
  1132.278    116.391     -0.400     43.696      3.475     -0.001   -999.250
  1132.320    116.870     -0.409     43.706      3.476     -0.001   -999.250
  1132.362    117.472     -0.418     43.722      3.477      0.000   -999.250
  1132.404    117.955     -0.421     43.721      3.477      0.001   -999.250
  1132.446    118.475     -0.422     43.693      3.479      0.001   -999.250
  1132.488    118.983     -0.423     43.672      3.479      0.002   -999.250
  1132.530    119.129     -0.426     43.666      3.478      0.002   -999.250
  1132.572    119.201     -0.432     43.673      3.478      0.002   -999.250
  1132.614    119.120     -0.433     43.676      3.478      0.002   -999.250
  1132.656    119.104     -0.436     43.674      3.478      0.003   -999.250
  1132.698    119.041     -0.442     43.662      3.478      0.003   -999.250
  1132.740    119.059     -0.451     43.646      3.478      0.003   -999.250
  1132.782    118.981     -0.457     43.682      3.478      0.003   -999.250
  1132.824    118.898     -0.458     43.678      3.479      0.004   -999.250
  1132.866    119.015     -0.463     43.684      3.478      0.004   -999.250
  1132.908    119.277     -0.465     43.685      3.478      0.004   -999.250
  1132.950    119.557     -0.467     43.655      3.478      0.004   -999.250
  1132.992    119.845     -0.466     43.670      3.478      0.004   -999.250
  1133.034    119.994     -0.459     43.671      3.479      0.004   -999.250
  1133.076    120.152     -0.458     43.644      3.478      0.005   -999.250
  1133.118    120.188     -0.457     43.651      3.478      0.005   -999.250
  1133.160    120.238     -0.454     43.681      3.478      0.005   -999.250
  1133.202    120.386     -0.452     43.681      3.479      0.005   -999.250
  1133.244    120.568     -0.450     43.680      3.479      0.005   -999.250
  1133.286    120.624     -0.449     43.670      3.479      0.005   -999.250
  1133.328    120.647     -0.448     43.680      3.478      0.005   -999.250
  1133.370    120.683     -0.446     43.708      3.478      0.005   -999.250
  1133.412    120.563     -0.445     43.685      3.478      0.005   -999.250
  1133.454    120.277     -0.446     43.679      3.478      0.005   -999.250
  1133.496    119.826     -0.449     43.672      3.478      0.005   -999.250
  1133.538    119.414     -0.450     43.685      3.478      0.005   -999.250
  1133.580    119.020     -0.447     43.643      3.478      0.005   -999.250
  1133.622    118.683     -0.446     43.694      3.477      0.005   -999.250
  1133.664    118.270     -0.444     43.674      3.477      0.005   -999.250
  1133.706    117.732     -0.448     43.660      3.477      0.005   -999.250
  1133.748    117.144     -0.447     43.668      3.476      0.005   -999.250
  1133.790    116.611     -0.446     43.669      3.475      0.005   -999.250
  1133.832    116.228     -0.446     43.662      3.475      0.005   -999.250
  1133.874    115.752     -0.447     43.654      3.476      0.005   -999.250
  1133.916    115.314     -0.449     43.684      3.476      0.005   -999.250
  1133.958    114.999     -0.452     43.685      3.477      0.005   -999.250
  1134.000    114.619     -0.452     43.663      3.477      0.005   -999.250
  1134.042    114.144     -0.454     43.657      3.477      0.005   -999.250
  1134.084    113.455     -0.450     43.667      3.476      0.005   -999.250
  1134.126    112.745     -0.452     43.660      3.477      0.005   -999.250
  1134.168    112.044     -0.447     43.681      3.477      0.005   -999.250
  1134.210    111.305     -0.444     43.665      3.476      0.005   -999.250
  1134.252    110.588     -0.443     43.670      3.476      0.005   -999.250
  1134.294    109.884     -0.442     43.658      3.476      0.005   -999.250
  1134.336    109.164     -0.445     43.640      3.476      0.005   -999.250
  1134.378    108.655     -0.443     43.653      3.476      0.005   -999.250
  1134.420    108.169     -0.443     43.638      3.476      0.005   -999.250
  1134.462    107.602     -0.451     43.657      3.476      0.005   -999.250
  1134.504    107.006     -0.450     43.667      3.476      0.005   -999.250
  1134.546    106.460     -0.450     43.648      3.476      0.005   -999.250
  1134.588    105.820     -0.453     43.665      3.476      0.004   -999.250
  1134.630    104.965     -0.451     43.638      3.476      0.004   -999.250
  1134.672    104.095     -0.447     43.644      3.476      0.004   -999.250
  1134.714    103.237     -0.446     43.648      3.476      0.004   -999.250
  1134.756    102.414     -0.449     43.634      3.476      0.004   -999.250
  1134.798    101.693     -0.449     43.634      3.476      0.003   -999.250
  1134.840    101.000     -0.449     43.612      3.476      0.003   -999.250
  1134.882    100.207     -0.447     43.652      3.475      0.003   -999.250
  1134.924     99.414     -0.444     43.622      3.476      0.003   -999.250
  1134.966     98.536     -0.441     43.636      3.476      0.002   -999.250
  1135.008     97.692     -0.433     43.662      3.476      0.002   -999.250
  1135.050     96.618     -0.430     43.656      3.477      0.002   -999.250
  1135.092     95.659     -0.426     43.663      3.476      0.002   -999.250
  1135.134     94.870     -0.420     43.632      3.477      0.002   -999.250
  1135.176     94.139     -0.422     43.658      3.476      0.001   -999.250
  1135.218     93.391     -0.427     43.653      3.476      0.001   -999.250
  1135.260     92.619     -0.425     43.664      3.476      0.001   -999.250
  1135.302     91.865     -0.420     43.629      3.476      0.001   -999.250
  1135.344     91.163     -0.423     43.622      3.476      0.001   -999.250
  1135.386     90.557     -0.423     43.638      3.475      0.001   -999.250
  1135.428     90.150     -0.421     43.629      3.475      0.001   -999.250
  1135.470     89.847     -0.414     43.660      3.475      0.000   -999.250
  1135.512     89.655     -0.411     43.660      3.476      0.000   -999.250
  1135.554     89.432     -0.414     43.649      3.476      0.000   -999.250
  1135.596     89.229     -0.416     43.657      3.476     -0.000   -999.250
  1135.638     89.053     -0.418     43.657      3.476     -0.000   -999.250
