~Version Information
VERS.          2.00                         : CWLS Log ASCII Standard - Version 2.00
WRAP.          NO                           : One line per depth step
#
~Well Information
#MNEM.UNIT     DATA                         : DESCRIPTION      
#----.----     ---------                    : -----------------
STRT .FT          0.000                     : Start
STOP .FT       1712.592                     : Stop
STEP .FT          0.042                     : Step increment
NULL .         -999.250                     : Null value
COMP .                                      : Company
WELL .                                      : Well
FLD  .                                      : Field
PROV .                                      : Province / County
CTRY .                                      : State / Country
LOC  .                                      : Location
LOC2 .                                      : Location 2
SRVC .         Weatherford                  : Service company
UWI  .                                      : Unique Well ID
LL1  .                                      : Latitude
LL2  .                                      : Longitude
DATE .         20-Mar-2008                  : Logging date
#
~Curve Information
#MNEM.UNIT     API CODES                    : CURVE DESCRIPTION
#----.----     ---------                    : -----------------
DEPT .FT       00 001 00 00                 : Logged depth
GRTH .GAPI     31 790 00 00                 : GAMMA FROM CALIPER TOOL
COLL .CPS      00 000 00 00                 : CASING COLLAR LOCATOR
TEMP .DEGC     80 660 00 00                 : BOREHOLE TEMPERATURE
CATH .         00 000 00 00                 : THREE ARM CALIPER
DIFT .         00 000 00 00                 : DIFFERENTIAL TEMPERATURE
Bit IN.e                                    : MM
#
~Parameter Information
#MNEM.UNIT     VALUE                        : DESCRIPTION      
#----.----     ---------                    : -----------------
RNID .         temp                         : Run ID
EREF .FEET                                  : Elevation of depth reference
DREF .                                      : Depth reference
GL   .FEET                                  : Ground elevation
RUN  .                                      : Run number
TDD  .FEET                                  : TD (driller)
TDL  .FEET                                  : TD (logger)
CSGD .FEET                                  : Casing bottom (driller)
CSGL .FEET                                  : Casing bottom (logger)
BS   .INCHES                                : Bit size
MUD  .                                      : Mud type
MUDD .G/C3                                  : Mud density
MUDV .CP                                    : Mud viscosity
PH   .                                      : Mud pH
FL   .ML/30MIN                              : Mud fluid loss rate
MUDS .                                      : Mud sample source
TMAX .DEGC                                  : Max recorder temperature
TIMC .DAY/HR                                : Time circulation ended
TIML .DAY/HR                                : Time logger at bottom
UNIT .                                      : Equipment ID
BASE .                                      : Equipment base location
ENG  .                                      : Recording engineer
WIT  .                                      : Witnessed by
CSGS .INCHES   0.000                        : Casing size
CSGW .LB/FT    0.00                         : Casing weight
#
~Other Information
--------------------------------------------------------------------------------

--------------------------------------------------------------------------------
~A    DEPT       GRTH       COLL       TEMP       CATH       DIFT     Bit-IN
# ...
   113.568     23.149     -0.446     35.546      3.484     -0.002   -999.250
   113.610     23.742     -0.459     35.551      3.484     -0.002   -999.250
   113.652     24.482     -0.467     35.561      3.484     -0.002   -999.250
   113.694     25.330     -0.476     35.565      3.484     -0.002   -999.250
   113.736     26.191     -0.493     35.551      3.484     -0.002   -999.250
   113.778     27.187     -0.510     35.560      3.484     -0.002   -999.250
   113.820     28.146     -0.530     35.561      3.483     -0.002   -999.250
   113.862     29.266     -0.563     35.544      3.482     -0.002   -999.250
   113.904     30.358     -0.604     35.550      3.482     -0.002   -999.250
   113.946     31.441     -0.648     35.528      3.483     -0.002   -999.250
   113.988     32.625     -0.679     35.550      3.483     -0.003   -999.250
   114.030     33.752     -0.701     35.580      3.483     -0.003   -999.250
   114.072     34.965     -0.711     35.573      3.484     -0.002   -999.250
   114.114     36.045     -0.686     35.567      3.483     -0.002   -999.250
   114.156     37.017     -0.631     35.560      3.483     -0.002   -999.250
   114.198     37.999     -0.554     35.523      3.483     -0.002   -999.250
   114.240     38.950     -0.475     35.546      3.483     -0.002   -999.250
   114.282     39.951     -0.415     35.562      3.483     -0.002   -999.250
   114.324     40.945     -0.395     35.563      3.483     -0.002   -999.250
   114.366     41.875     -0.405     35.544      3.483     -0.002   -999.250
   114.408     42.817     -0.409     35.535      3.483     -0.002   -999.250
   114.450     43.674     -0.399     35.538      3.483     -0.002   -999.250
   114.492     44.505     -0.380     35.531      3.484     -0.002   -999.250
   114.534     45.147     -0.350     35.527      3.484     -0.003   -999.250
   114.576     45.716     -0.307     35.564      3.484     -0.003   -999.250
   114.618     46.254     -0.263     35.569      3.484     -0.003   -999.250
   114.660     46.780     -0.230     35.558      3.483     -0.003   -999.250
   114.702     47.417     -0.204     35.536      3.483     -0.002   -999.250
   114.744     48.102     -0.192     35.539      3.483     -0.003   -999.250
   114.786     48.755     -0.205     35.554      3.484     -0.003   -999.250
   114.828     49.341     -0.257     35.553      3.484     -0.003   -999.250
   114.870     49.841     -0.323     35.557      3.484     -0.003   -999.250
   114.912     50.456     -0.404     35.554      3.484     -0.003   -999.250
   114.954     51.096     -0.477     35.564      3.485     -0.003   -999.250
   114.996     51.693     -0.519     35.532      3.485     -0.003   -999.250
   115.038     52.235     -0.534     35.590      3.485     -0.003   -999.250
   115.080     52.826     -0.558     35.631      3.485     -0.003   -999.250
   115.122     53.540     -0.595     35.622      3.485     -0.002   -999.250
   115.164     54.342     -0.616     35.603      3.485     -0.002   -999.250
   115.206     55.352     -0.620     35.633      3.485     -0.002   -999.250
   115.248     56.516     -0.610     35.608      3.485     -0.001   -999.250
   115.290     57.638     -0.595     35.617      3.484     -0.001   -999.250
   115.332     58.730     -0.578     35.614      3.483     -0.000   -999.250
   115.374     59.659     -0.568     35.625      3.482      0.000   -999.250
   115.416     60.460     -0.561     35.608      3.482      0.000   -999.250
   115.458     60.939     -0.548     35.590      3.481      0.001   -999.250
   115.500     61.276     -0.523     35.597      3.482      0.001   -999.250
   115.542     61.751     -0.490     35.607      3.482      0.001   -999.250
   115.584     62.300     -0.455     35.599      3.483      0.002   -999.250
   115.626     62.713     -0.430     35.607      3.483      0.002   -999.250
   115.668     63.098     -0.415     35.595      3.482      0.002   -999.250
   115.710     63.552     -0.407     35.554      3.482      0.003   -999.250
   115.752     63.922     -0.382     35.530      3.482      0.002   -999.250
   115.794     64.198     -0.328     35.542      3.482      0.002   -999.250
   115.836     64.397     -0.273     35.536      3.481      0.002   -999.250
   115.878     64.590     -0.235     35.525      3.481      0.002   -999.250
   115.920     64.553     -0.226     35.529      3.481      0.001   -999.250
   115.962     64.515     -0.239     35.531      3.481      0.001   -999.250
   116.004     64.459     -0.266     35.545      3.481      0.001   -999.250
   116.046     64.338     -0.286     35.519      3.481      0.000   -999.250
   116.088     64.224     -0.290     35.544      3.481      0.000   -999.250
   116.130     64.243     -0.297     35.552      3.481      0.000   -999.250
   116.172     64.304     -0.318     35.538      3.480     -0.000   -999.250
   116.214     64.313     -0.356     35.569      3.480     -0.000   -999.250
   116.256     64.140     -0.404     35.557      3.480     -0.000   -999.250
   116.298     63.930     -0.451     35.575      3.480     -0.000   -999.250
   116.340     63.720     -0.472     35.566      3.480     -0.000   -999.250
   116.382     63.471     -0.464     35.580      3.480     -0.000   -999.250
   116.424     63.235     -0.460     35.567      3.481     -0.000   -999.250
   116.466     63.086     -0.490     35.537      3.481      0.000   -999.250
   116.508     63.290     -0.545     35.549      3.481     -0.000   -999.250
   116.550     63.644     -0.600     35.558      3.481     -0.000   -999.250
   116.592     64.123     -0.646     35.572      3.482      0.000   -999.250
   116.634     64.619     -0.675     35.558      3.482      0.000   -999.250
   116.676     65.067     -0.688     35.550      3.483      0.000   -999.250
   116.718     65.413     -0.701     35.552      3.483      0.000   -999.250
   116.760     65.650     -0.725     35.556      3.483      0.000   -999.250
   116.802     65.845     -0.749     35.554      3.484      0.000   -999.250
   116.844     65.980     -0.759     35.555      3.483      0.000   -999.250
   116.886     66.086     -0.759     35.557      3.483      0.000   -999.250
   116.928     66.197     -0.743     35.565      3.483      0.000   -999.250
   116.970     66.359     -0.715     35.546      3.483      0.000   -999.250
   117.012     66.674     -0.699     35.529      3.484      0.000   -999.250
   117.054     67.014     -0.702     35.546      3.484     -0.000   -999.250
   117.096     67.194     -0.703     35.536      3.484     -0.000   -999.250
   117.138     67.291     -0.684     35.547      3.484     -0.000   -999.250
   117.180     67.312     -0.657     35.553      3.484     -0.000   -999.250
   117.222     67.229     -0.635     35.533      3.484      0.000   -999.250
   117.264     67.009     -0.627     35.554      3.484     -0.000   -999.250
   117.306     66.705     -0.611     35.547      3.484     -0.000   -999.250
   117.348     66.419     -0.597     35.544      3.484     -0.000   -999.250
   117.390     66.232     -0.582     35.561      3.485     -0.000   -999.250
   117.432     66.146     -0.554     35.549      3.484     -0.000   -999.250
   117.474     66.370     -0.526     35.559      3.484     -0.000   -999.250
   117.516     66.708     -0.499     35.565      3.484     -0.000   -999.250
   117.558     66.822     -0.465     35.568      3.484     -0.000   -999.250
   117.600     66.836     -0.438     35.546      3.484     -0.000   -999.250
   117.642     66.790     -0.415     35.544      3.485     -0.000   -999.250
   117.684     66.652     -0.397     35.554      3.485     -0.000   -999.250
   117.726     66.430     -0.373     35.548      3.485     -0.000   -999.250
   117.768     66.216     -0.354     35.548      3.484     -0.001   -999.250
   117.810     66.021     -0.350     35.565      3.484     -0.001   -999.250
   117.852     65.826     -0.351     35.574      3.484     -0.001   -999.250
   117.894     65.587     -0.335     35.570      3.484     -0.001   -999.250
