~Version Information
VERS.          2.00                         : CWLS Log ASCII Standard - Version 2.00
WRAP.          NO                           : One line per depth step
#
~Well Information
#MNEM.UNIT     DATA                         : DESCRIPTION      
#----.----     ---------                    : -----------------
STRT .FT          0.000                     : Start
STOP .FT       1712.592                     : Stop
STEP .FT          0.042                     : Step increment
NULL .         -999.250                     : Null value
COMP .                                      : Company
WELL .                                      : Well
FLD  .                                      : Field
PROV .                                      : Province / County
CTRY .                                      : State / Country
LOC  .                                      : Location
LOC2 .                                      : Location 2
SRVC .         Weatherford                  : Service company
UWI  .                                      : Unique Well ID
LL1  .                                      : Latitude
LL2  .                                      : Longitude
DATE .         20-Mar-2008                  : Logging date
#
~Curve Information
#MNEM.UNIT     API CODES                    : CURVE DESCRIPTION
#----.----     ---------                    : -----------------
DEPT .FT       00 001 00 00                 : Logged depth
GRTH .GAPI     31 790 00 00                 : GAMMA FROM CALIPER TOOL
COLL .CPS      00 000 00 00                 : CASING COLLAR LOCATOR
TEMP .DEGC     80 660 00 00                 : BOREHOLE TEMPERATURE
CATH .         00 000 00 00                 : THREE ARM CALIPER
DIFT .         00 000 00 00                 : DIFFERENTIAL TEMPERATURE
Bit IN.e                                    : MM
#
~Parameter Information
#MNEM.UNIT     VALUE                        : DESCRIPTION      
#----.----     ---------                    : -----------------
RNID .         temp                         : Run ID
EREF .FEET                                  : Elevation of depth reference
DREF .                                      : Depth reference
GL   .FEET                                  : Ground elevation
RUN  .                                      : Run number
TDD  .FEET                                  : TD (driller)
TDL  .FEET                                  : TD (logger)
CSGD .FEET                                  : Casing bottom (driller)
CSGL .FEET                                  : Casing bottom (logger)
BS   .INCHES                                : Bit size
MUD  .                                      : Mud type
MUDD .G/C3                                  : Mud density
MUDV .CP                                    : Mud viscosity
PH   .                                      : Mud pH
FL   .ML/30MIN                              : Mud fluid loss rate
MUDS .                                      : Mud sample source
TMAX .DEGC                                  : Max recorder temperature
TIMC .DAY/HR                                : Time circulation ended
TIML .DAY/HR                                : Time logger at bottom
UNIT .                                      : Equipment ID
BASE .                                      : Equipment base location
ENG  .                                      : Recording engineer
WIT  .                                      : Witnessed by
CSGS .INCHES   0.000                        : Casing size
CSGW .LB/FT    0.00                         : Casing weight
#
~Other Information
--------------------------------------------------------------------------------

--------------------------------------------------------------------------------
~A    DEPT       GRTH       COLL       TEMP       CATH       DIFT     Bit-IN
# ...
  1244.880    121.256     -0.431     44.705      3.475     -0.005   -999.250
  1244.922    120.805     -0.426     44.763      3.475     -0.005   -999.250
  1244.964    120.387     -0.422     44.771      3.475     -0.005   -999.250
  1245.006    120.039     -0.415     44.779      3.475     -0.005   -999.250
  1245.048    119.726     -0.409     44.754      3.475     -0.005   -999.250
  1245.090    119.549     -0.412     44.786      3.475     -0.004   -999.250
  1245.132    119.593     -0.419     44.748      3.475     -0.004   -999.250
  1245.174    119.441     -0.425     44.745      3.476     -0.004   -999.250
  1245.216    119.318     -0.429     44.741      3.476     -0.004   -999.250
  1245.258    119.166     -0.428     44.784      3.476     -0.004   -999.250
  1245.300    118.968     -0.427     44.780      3.476     -0.004   -999.250
  1245.342    118.723     -0.423     44.758      3.476     -0.004   -999.250
  1245.384    118.313     -0.428     44.778      3.476     -0.005   -999.250
  1245.426    117.684     -0.430     44.774      3.475     -0.005   -999.250
  1245.468    116.883     -0.430     44.802      3.475     -0.005   -999.250
  1245.510    116.108     -0.434     44.804      3.475     -0.005   -999.250
  1245.552    115.386     -0.436     44.842      3.475     -0.004   -999.250
  1245.594    114.477     -0.436     44.808      3.476     -0.004   -999.250
  1245.636    113.461     -0.434     44.792      3.475     -0.004   -999.250
  1245.678    112.289     -0.435     44.774      3.475     -0.004   -999.250
  1245.720    111.254     -0.432     44.791      3.475     -0.004   -999.250
  1245.762    110.120     -0.423     44.793      3.474     -0.004   -999.250
  1245.804    108.757     -0.408     44.787      3.474     -0.004   -999.250
  1245.846    107.316     -0.381     44.792      3.475     -0.004   -999.250
  1245.888    105.888     -0.370     44.814      3.475     -0.004   -999.250
  1245.930    104.649     -0.388     44.776      3.475     -0.004   -999.250
  1245.972    103.535     -0.425     44.755      3.475     -0.004   -999.250
  1246.014    102.590     -0.457     44.785      3.475     -0.004   -999.250
  1246.056    101.773     -0.477     44.787      3.475     -0.004   -999.250
  1246.098    100.913     -0.486     44.767      3.475     -0.004   -999.250
  1246.140    100.202     -0.490     44.798      3.475     -0.004   -999.250
  1246.182     99.722     -0.498     44.778      3.475     -0.004   -999.250
  1246.224     99.449     -0.508     44.769      3.475     -0.004   -999.250
  1246.266     99.203     -0.526     44.784      3.474     -0.004   -999.250
  1246.308     99.026     -0.544     44.793      3.474     -0.004   -999.250
  1246.350     98.951     -0.558     44.816      3.475     -0.004   -999.250
  1246.392     98.893     -0.574     44.803      3.474     -0.004   -999.250
  1246.434     98.771     -0.582     44.806      3.474     -0.004   -999.250
  1246.476     98.666     -0.590     44.791      3.474     -0.004   -999.250
  1246.518     98.653     -0.608     44.822      3.474     -0.004   -999.250
  1246.560     98.752     -0.619     44.778      3.474     -0.004   -999.250
  1246.602     98.764     -0.613     44.796      3.474     -0.004   -999.250
  1246.644     98.713     -0.579     44.812      3.474     -0.004   -999.250
  1246.686     98.612     -0.540     44.794      3.474     -0.004   -999.250
  1246.728     98.460     -0.517     44.826      3.474     -0.004   -999.250
  1246.770     98.557     -0.505     44.822      3.474     -0.003   -999.250
  1246.812     98.862     -0.502     44.804      3.474     -0.003   -999.250
  1246.854     99.149     -0.488     44.792      3.474     -0.003   -999.250
  1246.896     99.353     -0.468     44.820      3.474     -0.003   -999.250
  1246.938     99.643     -0.453     44.812      3.474     -0.003   -999.250
  1246.980    100.082     -0.448     44.835      3.474     -0.003   -999.250
  1247.022    100.502     -0.451     44.797      3.475     -0.002   -999.250
  1247.064    101.015     -0.450     44.799      3.475     -0.002   -999.250
  1247.106    101.403     -0.439     44.798      3.475     -0.002   -999.250
  1247.148    101.600     -0.414     44.790      3.475     -0.002   -999.250
  1247.190    101.678     -0.395     44.778      3.475     -0.002   -999.250
  1247.232    101.629     -0.396     44.745      3.475     -0.003   -999.250
  1247.274    101.615     -0.418     44.743      3.476     -0.003   -999.250
  1247.316    101.633     -0.443     44.746      3.476     -0.003   -999.250
  1247.358    101.657     -0.461     44.748      3.476     -0.004   -999.250
  1247.400    101.747     -0.467     44.732      3.476     -0.004   -999.250
  1247.442    101.763     -0.469     44.734      3.476     -0.005   -999.250
  1247.484    101.566     -0.475     44.729      3.476     -0.005   -999.250
  1247.526    101.400     -0.486     44.762      3.476     -0.005   -999.250
  1247.568    101.234     -0.491     44.752      3.476     -0.006   -999.250
  1247.610    101.110     -0.486     44.767      3.476     -0.006   -999.250
  1247.652    101.000     -0.461     44.724      3.476     -0.006   -999.250
  1247.694    100.888     -0.428     44.741      3.476     -0.007   -999.250
  1247.736    100.836     -0.401     44.745      3.476     -0.007   -999.250
  1247.778    101.036     -0.403     44.736      3.476     -0.007   -999.250
  1247.820    101.532     -0.434     44.743      3.477     -0.008   -999.250
  1247.862    102.071     -0.480     44.749      3.477     -0.008   -999.250
  1247.904    102.736     -0.508     44.841      3.477     -0.009   -999.250
  1247.946    103.163     -0.496     44.811      3.477     -0.009   -999.250
  1247.988    103.369     -0.454     44.825      3.476     -0.009   -999.250
  1248.030    103.581     -0.429     44.825      3.476     -0.009   -999.250
  1248.072    103.771     -0.435     44.827      3.477     -0.009   -999.250
  1248.114    103.959     -0.461     44.822      3.477     -0.009   -999.250
  1248.156    104.158     -0.487     44.815      3.477     -0.009   -999.250
  1248.198    104.152     -0.512     44.807      3.478     -0.009   -999.250
  1248.240    104.037     -0.536     44.809      3.477     -0.009   -999.250
  1248.282    103.848     -0.565     44.797      3.477     -0.010   -999.250
  1248.324    103.521     -0.603     44.824      3.477     -0.010   -999.250
  1248.366    103.057     -0.653     44.842      3.476     -0.010   -999.250
  1248.408    102.575     -0.696     44.804      3.476     -0.010   -999.250
  1248.450    102.286     -0.724     44.813      3.476     -0.010   -999.250
  1248.492    102.135     -0.724     44.829      3.476     -0.011   -999.250
  1248.534    102.288     -0.694     44.821      3.476     -0.011   -999.250
  1248.576    102.447     -0.682     44.816      3.476     -0.011   -999.250
  1248.618    102.655     -0.690     44.824      3.476     -0.010   -999.250
  1248.660    102.945     -0.718     44.794      3.476     -0.010   -999.250
  1248.702    103.126     -0.732     44.811      3.476     -0.010   -999.250
  1248.744    103.163     -0.726     44.813      3.476     -0.010   -999.250
  1248.786    102.948     -0.701     44.792      3.476     -0.010   -999.250
  1248.828    102.616     -0.675     44.806      3.476     -0.010   -999.250
  1248.870    102.190     -0.651     44.833      3.476     -0.010   -999.250
  1248.912    101.637     -0.617     44.798      3.476     -0.010   -999.250
  1248.954    101.041     -0.578     44.818      3.476     -0.010   -999.250
  1248.996    100.310     -0.521     44.822      3.476     -0.010   -999.250
  1249.038     99.737     -0.459     44.802      3.476     -0.010   -999.250
  1249.080     99.154     -0.405     44.801      3.476     -0.010   -999.250
  1249.122     98.488     -0.362     44.829      3.476     -0.010   -999.250
  1249.164     97.822     -0.321     44.825      3.476     -0.010   -999.250
  1249.206     97.108     -0.313     44.835      3.476     -0.010   -999.250
