~Version Information
VERS.          2.00                         : CWLS Log ASCII Standard - Version 2.00
WRAP.          NO                           : One line per depth step
#
~Well Information
#MNEM.UNIT     DATA                         : DESCRIPTION      
#----.----     ---------                    : -----------------
STRT .FT          0.000                     : Start
STOP .FT       1712.592                     : Stop
STEP .FT          0.042                     : Step increment
NULL .         -999.250                     : Null value
COMP .                                      : Company
WELL .                                      : Well
FLD  .                                      : Field
PROV .                                      : Province / County
CTRY .                                      : State / Country
LOC  .                                      : Location
LOC2 .                                      : Location 2
SRVC .         Weatherford                  : Service company
UWI  .                                      : Unique Well ID
LL1  .                                      : Latitude
LL2  .                                      : Longitude
DATE .         20-Mar-2008                  : Logging date
#
~Curve Information
#MNEM.UNIT     API CODES                    : CURVE DESCRIPTION
#----.----     ---------                    : -----------------
DEPT .FT       00 001 00 00                 : Logged depth
GRTH .GAPI     31 790 00 00                 : GAMMA FROM CALIPER TOOL
COLL .CPS      00 000 00 00                 : CASING COLLAR LOCATOR
TEMP .DEGC     80 660 00 00                 : BOREHOLE TEMPERATURE
CATH .         00 000 00 00                 : THREE ARM CALIPER
DIFT .         00 000 00 00                 : DIFFERENTIAL TEMPERATURE
Bit IN.e                                    : MM
#
~Parameter Information
#MNEM.UNIT     VALUE                        : DESCRIPTION      
#----.----     ---------                    : -----------------
RNID .         temp                         : Run ID
EREF .FEET                                  : Elevation of depth reference
DREF .                                      : Depth reference
GL   .FEET                                  : Ground elevation
RUN  .                                      : Run number
TDD  .FEET                                  : TD (driller)
TDL  .FEET                                  : TD (logger)
CSGD .FEET                                  : Casing bottom (driller)
CSGL .FEET                                  : Casing bottom (logger)
BS   .INCHES                                : Bit size
MUD  .                                      : Mud type
MUDD .G/C3                                  : Mud density
MUDV .CP                                    : Mud viscosity
PH   .                                      : Mud pH
FL   .ML/30MIN                              : Mud fluid loss rate
MUDS .                                      : Mud sample source
TMAX .DEGC                                  : Max recorder temperature
TIMC .DAY/HR                                : Time circulation ended
TIML .DAY/HR                                : Time logger at bottom
UNIT .                                      : Equipment ID
BASE .                                      : Equipment base location
ENG  .                                      : Recording engineer
WIT  .                                      : Witnessed by
CSGS .INCHES   0.000                        : Casing size
CSGW .LB/FT    0.00                         : Casing weight
#
~Other Information
--------------------------------------------------------------------------------

--------------------------------------------------------------------------------
~A    DEPT       GRTH       COLL       TEMP       CATH       DIFT     Bit-IN
# ...
  1585.584    133.056     -0.444     48.110      7.497      0.003   -999.250
  1585.626    133.220     -0.444     48.103      7.472      0.003   -999.250
  1585.668    133.287     -0.442     48.097      7.449      0.003   -999.250
  1585.710    133.367     -0.443     48.103      7.430      0.004   -999.250
  1585.752    133.478     -0.444     48.107      7.412      0.004   -999.250
  1585.794    133.453     -0.442     48.097      7.395      0.004   -999.250
  1585.836    133.486     -0.444     48.099      7.379      0.004   -999.250
  1585.878    133.354     -0.444     48.095      7.366      0.005   -999.250
  1585.920    133.393     -0.443     48.092      7.359      0.005   -999.250
  1585.962    133.656     -0.444     48.101      7.360      0.005   -999.250
  1586.004    134.173     -0.445     48.100      7.371      0.005   -999.250
  1586.046    134.805     -0.445     48.105      7.385      0.005   -999.250
  1586.088    135.378     -0.443     48.102      7.401      0.006   -999.250
  1586.130    136.109     -0.441     48.118      7.414      0.006   -999.250
  1586.172    136.916     -0.444     48.108      7.424      0.006   -999.250
  1586.214    137.460     -0.443     48.103      7.431      0.007   -999.250
  1586.256    137.902     -0.441     48.094      7.436      0.007   -999.250
  1586.298    138.391     -0.443     48.102      7.440      0.007   -999.250
  1586.340    138.884     -0.442     48.103      7.439      0.007   -999.250
  1586.382    139.288     -0.443     48.101      7.434      0.008   -999.250
  1586.424    139.556     -0.442     48.092      7.420      0.008   -999.250
  1586.466    139.730     -0.442     48.095      7.397      0.008   -999.250
  1586.508    139.784     -0.444     48.096      7.374      0.009   -999.250
  1586.550    139.996     -0.443     48.112      7.355      0.009   -999.250
  1586.592    140.672     -0.442     48.099      7.345      0.010   -999.250
  1586.634    141.352     -0.441     48.102      7.346      0.010   -999.250
  1586.676    142.018     -0.440     48.105      7.355      0.010   -999.250
  1586.718    142.673     -0.441     48.102      7.373      0.010   -999.250
  1586.760    143.162     -0.440     48.108      7.391      0.011   -999.250
  1586.802    143.573     -0.442     48.090      7.412      0.011   -999.250
  1586.844    144.079     -0.442     48.096      7.436      0.011   -999.250
  1586.886    144.496     -0.442     48.087      7.463      0.011   -999.250
  1586.928    144.613     -0.443     48.102      7.494      0.011   -999.250
  1586.970    144.597     -0.443     48.104      7.522      0.012   -999.250
  1587.012    144.583     -0.442     48.083      7.547      0.012   -999.250
  1587.054    144.633     -0.442     48.093      7.564      0.012   -999.250
  1587.096    144.899     -0.441     48.091      7.571      0.012   -999.250
  1587.138    145.297     -0.443     48.081      7.570      0.012   -999.250
  1587.180    145.686     -0.443     48.083      7.566      0.012   -999.250
  1587.222    146.067     -0.441     48.070      7.560      0.012   -999.250
  1587.264    146.493     -0.443     48.077      7.553      0.012   -999.250
  1587.306    147.119     -0.445     48.079      7.545      0.012   -999.250
  1587.348    147.812     -0.443     48.079      7.538      0.012   -999.250
  1587.390    148.313     -0.441     48.077      7.532      0.012   -999.250
  1587.432    148.655     -0.442     48.066      7.527      0.012   -999.250
  1587.474    149.013     -0.442     48.076      7.526      0.012   -999.250
  1587.516    149.720     -0.443     48.084      7.529      0.013   -999.250
  1587.558    150.457     -0.443     48.069      7.534      0.013   -999.250
  1587.600    151.157     -0.443     48.065      7.539      0.013   -999.250
  1587.642    151.935     -0.442     48.048      7.537      0.013   -999.250
  1587.684    152.566     -0.441     48.064      7.535      0.013   -999.250
  1587.726    153.103     -0.442     48.057      7.535      0.013   -999.250
  1587.768    153.749     -0.444     48.044      7.539      0.013   -999.250
  1587.810    154.329     -0.444     48.055      7.548      0.013   -999.250
  1587.852    154.786     -0.442     48.056      7.558      0.013   -999.250
  1587.894    155.352     -0.442     48.063      7.566      0.013   -999.250
  1587.936    156.164     -0.443     48.048      7.573      0.012   -999.250
  1587.978    156.908     -0.442     48.047      7.578      0.012   -999.250
  1588.020    157.398     -0.441     48.046      7.583      0.012   -999.250
  1588.062    157.835     -0.443     48.047      7.589      0.012   -999.250
  1588.104    158.145     -0.444     48.035      7.597      0.012   -999.250
  1588.146    158.347     -0.444     48.035      7.607      0.012   -999.250
  1588.188    158.407     -0.444     48.020      7.616      0.012   -999.250
  1588.230    158.307     -0.443     48.029      7.613      0.011   -999.250
  1588.272    158.003     -0.444     48.038      7.597      0.011   -999.250
  1588.314    157.730     -0.442     48.049      7.568      0.011   -999.250
  1588.356    157.553     -0.442     48.023      7.532      0.011   -999.250
  1588.398    157.488     -0.442     48.038      7.503      0.011   -999.250
  1588.440    157.527     -0.442     48.050      7.483      0.011   -999.250
  1588.482    157.573     -0.442     48.048      7.474      0.011   -999.250
  1588.524    157.697     -0.443     48.054      7.469      0.011   -999.250
  1588.566    157.723     -0.443     48.042      7.470      0.011   -999.250
  1588.608    157.525     -0.443     48.063      7.474      0.011   -999.250
  1588.650    157.069     -0.442     48.051      7.479      0.011   -999.250
  1588.692    156.491     -0.443     48.037      7.485      0.011   -999.250
  1588.734    156.110     -0.445     48.039      7.492      0.011   -999.250
  1588.776    155.750     -0.444     48.051      7.501      0.011   -999.250
  1588.818    155.304     -0.442     48.052      7.509      0.011   -999.250
  1588.860    155.047     -0.442     48.040      7.516      0.011   -999.250
  1588.902    154.868     -0.442     48.046      7.522      0.011   -999.250
  1588.944    154.732     -0.443     48.052      7.525      0.011   -999.250
  1588.986    154.626     -0.442     48.023      7.528      0.011   -999.250
  1589.028    154.747     -0.444     48.026      7.528      0.011   -999.250
  1589.070    154.916     -0.445     48.023      7.525      0.011   -999.250
  1589.112    155.058     -0.445     48.012      7.525      0.010   -999.250
  1589.154    155.333     -0.444     48.020      7.524      0.010   -999.250
  1589.196    155.421     -0.443     48.016      7.525      0.010   -999.250
  1589.238    155.172     -0.444     48.025      7.527      0.010   -999.250
  1589.280    154.954     -0.442     48.029      7.528      0.009   -999.250
  1589.322    154.835     -0.441     48.024      7.530      0.009   -999.250
  1589.364    154.867     -0.443     48.024      7.532      0.009   -999.250
  1589.406    154.957     -0.444     48.033      7.533      0.009   -999.250
  1589.448    155.123     -0.443     48.035      7.533      0.009   -999.250
  1589.490    155.148     -0.444     48.034      7.531      0.008   -999.250
  1589.532    155.194     -0.444     48.039      7.528      0.008   -999.250
  1589.574    155.584     -0.444     48.037      7.533      0.008   -999.250
  1589.616    156.047     -0.443     48.037      7.548      0.008   -999.250
  1589.658    156.443     -0.441     48.041      7.573      0.008   -999.250
  1589.700    156.638     -0.444     48.039      7.606      0.008   -999.250
  1589.742    156.478     -0.444     48.051      7.637      0.008   -999.250
  1589.784    156.142     -0.443     48.044      7.668      0.008   -999.250
  1589.826    155.852     -0.442     48.055      7.696      0.008   -999.250
  1589.868    155.568     -0.443     48.051      7.720      0.008   -999.250
  1589.910    155.057     -0.442     48.034      7.741      0.008   -999.250
