~Version Information
VERS.          2.00                         : CWLS Log ASCII Standard - Version 2.00
WRAP.          NO                           : One line per depth step
#
~Well Information
#MNEM.UNIT     DATA                         : DESCRIPTION      
#----.----     ---------                    : -----------------
STRT .FT          0.000                     : Start
STOP .FT       1712.592                     : Stop
STEP .FT          0.042                     : Step increment
NULL .         -999.250                     : Null value
COMP .                                      : Company
WELL .                                      : Well
FLD  .                                      : Field
PROV .                                      : Province / County
CTRY .                                      : State / Country
LOC  .                                      : Location
LOC2 .                                      : Location 2
SRVC .         Weatherford                  : Service company
UWI  .                                      : Unique Well ID
LL1  .                                      : Latitude
LL2  .                                      : Longitude
DATE .         20-Mar-2008                  : Logging date
#
~Curve Information
#MNEM.UNIT     API CODES                    : CURVE DESCRIPTION
#----.----     ---------                    : -----------------
DEPT .FT       00 001 00 00                 : Logged depth
GRTH .GAPI     31 790 00 00                 : GAMMA FROM CALIPER TOOL
COLL .CPS      00 000 00 00                 : CASING COLLAR LOCATOR
TEMP .DEGC     80 660 00 00                 : BOREHOLE TEMPERATURE
CATH .         00 000 00 00                 : THREE ARM CALIPER
DIFT .         00 000 00 00                 : DIFFERENTIAL TEMPERATURE
Bit IN.e                                    : MM
#
~Parameter Information
#MNEM.UNIT     VALUE                        : DESCRIPTION      
#----.----     ---------                    : -----------------
RNID .         temp                         : Run ID
EREF .FEET                                  : Elevation of depth reference
DREF .                                      : Depth reference
GL   .FEET                                  : Ground elevation
RUN  .                                      : Run number
TDD  .FEET                                  : TD (driller)
TDL  .FEET                                  : TD (logger)
CSGD .FEET                                  : Casing bottom (driller)
CSGL .FEET                                  : Casing bottom (logger)
BS   .INCHES                                : Bit size
MUD  .                                      : Mud type
MUDD .G/C3                                  : Mud density
MUDV .CP                                    : Mud viscosity
PH   .                                      : Mud pH
FL   .ML/30MIN                              : Mud fluid loss rate
MUDS .                                      : Mud sample source
TMAX .DEGC                                  : Max recorder temperature
TIMC .DAY/HR                                : Time circulation ended
TIML .DAY/HR                                : Time logger at bottom
UNIT .                                      : Equipment ID
BASE .                                      : Equipment base location
ENG  .                                      : Recording engineer
WIT  .                                      : Witnessed by
CSGS .INCHES   0.000                        : Casing size
CSGW .LB/FT    0.00                         : Casing weight
#
~Other Information
--------------------------------------------------------------------------------

--------------------------------------------------------------------------------
~A    DEPT       GRTH       COLL       TEMP       CATH       DIFT     Bit-IN
# ...
  1358.448     91.904     -0.199     46.085      3.476     -0.010   -999.250
  1358.490     91.553     -0.200     46.095      3.476     -0.009   -999.250
  1358.532     91.183     -0.207     46.095      3.476     -0.009   -999.250
  1358.574     91.009     -0.227     46.086      3.476     -0.009   -999.250
  1358.616     90.837     -0.252     46.081      3.476     -0.008   -999.250
  1358.658     90.594     -0.285     46.100      3.476     -0.008   -999.250
  1358.700     90.404     -0.319     46.082      3.476     -0.008   -999.250
  1358.742     90.264     -0.335     46.072      3.476     -0.008   -999.250
  1358.784     90.141     -0.341     46.089      3.476     -0.008   -999.250
  1358.826     90.112     -0.351     46.077      3.475     -0.007   -999.250
  1358.868     89.994     -0.365     46.073      3.475     -0.007   -999.250
  1358.910     89.760     -0.375     46.074      3.475     -0.007   -999.250
  1358.952     89.473     -0.385     46.082      3.475     -0.007   -999.250
  1358.994     89.152     -0.389     46.076      3.475     -0.008   -999.250
  1359.036     88.672     -0.389     46.083      3.475     -0.008   -999.250
  1359.078     88.089     -0.391     46.094      3.475     -0.008   -999.250
  1359.120     87.450     -0.394     46.071      3.475     -0.008   -999.250
  1359.162     86.752     -0.400     46.077      3.475     -0.008   -999.250
  1359.204     86.070     -0.404     46.085      3.475     -0.008   -999.250
  1359.246     85.318     -0.404     46.085      3.475     -0.008   -999.250
  1359.288     84.685     -0.410     46.100      3.475     -0.008   -999.250
  1359.330     84.083     -0.410     46.089      3.476     -0.007   -999.250
  1359.372     83.513     -0.405     46.090      3.476     -0.007   -999.250
  1359.414     82.923     -0.406     46.094      3.476     -0.007   -999.250
  1359.456     82.121     -0.409     46.106      3.475     -0.007   -999.250
  1359.498     81.284     -0.414     46.095      3.475     -0.007   -999.250
  1359.540     80.542     -0.412     46.113      3.476     -0.007   -999.250
  1359.582     79.996     -0.410     46.109      3.476     -0.007   -999.250
  1359.624     79.553     -0.411     46.115      3.476     -0.007   -999.250
  1359.666     79.241     -0.414     46.113      3.476     -0.007   -999.250
  1359.708     79.127     -0.424     46.087      3.475     -0.007   -999.250
  1359.750     79.062     -0.437     46.098      3.475     -0.006   -999.250
  1359.792     79.019     -0.444     46.088      3.475     -0.006   -999.250
  1359.834     78.944     -0.442     46.089      3.475     -0.006   -999.250
  1359.876     78.881     -0.441     46.090      3.475     -0.007   -999.250
  1359.918     78.996     -0.443     46.092      3.475     -0.007   -999.250
  1359.960     79.153     -0.441     46.086      3.475     -0.007   -999.250
  1360.002     79.287     -0.435     46.101      3.475     -0.007   -999.250
  1360.044     79.350     -0.440     46.075      3.475     -0.007   -999.250
  1360.086     79.366     -0.444     46.071      3.475     -0.007   -999.250
  1360.128     79.514     -0.446     46.079      3.475     -0.007   -999.250
  1360.170     79.711     -0.443     46.081      3.476     -0.007   -999.250
  1360.212     80.094     -0.442     46.090      3.475     -0.008   -999.250
  1360.254     80.481     -0.446     46.085      3.475     -0.008   -999.250
  1360.296     80.836     -0.444     46.090      3.475     -0.008   -999.250
  1360.338     81.240     -0.443     46.082      3.475     -0.008   -999.250
  1360.380     81.386     -0.435     46.090      3.475     -0.008   -999.250
  1360.422     81.419     -0.425     46.094      3.475     -0.008   -999.250
  1360.464     81.423     -0.421     46.121      3.475     -0.009   -999.250
  1360.506     81.334     -0.420     46.113      3.475     -0.008   -999.250
  1360.548     81.330     -0.420     46.106      3.475     -0.008   -999.250
  1360.590     81.326     -0.419     46.103      3.474     -0.008   -999.250
  1360.632     81.306     -0.422     46.123      3.474     -0.008   -999.250
  1360.674     81.140     -0.428     46.118      3.474     -0.008   -999.250
  1360.716     80.917     -0.436     46.109      3.474     -0.008   -999.250
  1360.758     80.685     -0.437     46.129      3.474     -0.008   -999.250
  1360.800     80.420     -0.441     46.128      3.474     -0.008   -999.250
  1360.842     80.146     -0.441     46.115      3.474     -0.008   -999.250
  1360.884     79.912     -0.446     46.119      3.474     -0.008   -999.250
  1360.926     79.573     -0.443     46.118      3.474     -0.008   -999.250
  1360.968     79.332     -0.445     46.116      3.474     -0.008   -999.250
  1361.010     79.056     -0.448     46.126      3.474     -0.008   -999.250
  1361.052     78.815     -0.455     46.102      3.474     -0.008   -999.250
  1361.094     78.803     -0.462     46.144      3.474     -0.008   -999.250
  1361.136     78.977     -0.467     46.116      3.474     -0.008   -999.250
  1361.178     79.265     -0.469     46.085      3.474     -0.008   -999.250
  1361.220     79.581     -0.473     46.131      3.474     -0.008   -999.250
  1361.262     79.837     -0.478     46.106      3.474     -0.008   -999.250
  1361.304     80.050     -0.474     46.105      3.474     -0.008   -999.250
  1361.346     80.335     -0.470     46.106      3.474     -0.008   -999.250
  1361.388     80.598     -0.463     46.127      3.474     -0.008   -999.250
  1361.430     80.982     -0.456     46.118      3.474     -0.008   -999.250
  1361.472     81.402     -0.453     46.106      3.474     -0.008   -999.250
  1361.514     81.777     -0.450     46.103      3.474     -0.008   -999.250
  1361.556     82.109     -0.448     46.113      3.473     -0.008   -999.250
  1361.598     82.323     -0.450     46.130      3.474     -0.008   -999.250
  1361.640     82.460     -0.451     46.123      3.473     -0.008   -999.250
  1361.682     82.546     -0.455     46.124      3.473     -0.008   -999.250
  1361.724     82.644     -0.452     46.116      3.473     -0.008   -999.250
  1361.766     82.770     -0.445     46.133      3.473     -0.008   -999.250
  1361.808     82.895     -0.440     46.096      3.473     -0.008   -999.250
  1361.850     82.992     -0.439     46.140      3.473     -0.008   -999.250
  1361.892     83.145     -0.436     46.142      3.473     -0.008   -999.250
  1361.934     83.364     -0.432     46.120      3.473     -0.008   -999.250
  1361.976     83.598     -0.431     46.151      3.473     -0.008   -999.250
  1362.018     83.921     -0.435     46.116      3.473     -0.008   -999.250
  1362.060     84.344     -0.439     46.121      3.473     -0.008   -999.250
  1362.102     84.717     -0.442     46.125      3.473     -0.008   -999.250
  1362.144     85.141     -0.443     46.146      3.473     -0.008   -999.250
  1362.186     85.711     -0.442     46.136      3.473     -0.008   -999.250
  1362.228     86.094     -0.443     46.138      3.473     -0.008   -999.250
  1362.270     86.430     -0.442     46.146      3.473     -0.008   -999.250
  1362.312     86.894     -0.438     46.127      3.473     -0.007   -999.250
  1362.354     87.394     -0.434     46.123      3.473     -0.008   -999.250
  1362.396     87.962     -0.431     46.133      3.473     -0.008   -999.250
  1362.438     88.507     -0.440     46.120      3.473     -0.008   -999.250
  1362.480     89.311     -0.439     46.154      3.473     -0.008   -999.250
  1362.522     90.204     -0.435     46.152      3.473     -0.007   -999.250
  1362.564     91.066     -0.430     46.133      3.473     -0.007   -999.250
  1362.606     91.695     -0.430     46.144      3.473     -0.007   -999.250
  1362.648     92.539     -0.429     46.142      3.473     -0.007   -999.250
  1362.690     93.433     -0.428     46.132      3.473     -0.007   -999.250
  1362.732     94.319     -0.426     46.148      3.473     -0.008   -999.250
  1362.774     95.232     -0.425     46.134      3.473     -0.008   -999.250
