~Version Information
VERS.          2.00                         : CWLS Log ASCII Standard - Version 2.00
WRAP.          NO                           : One line per depth step
#
~Well Information
#MNEM.UNIT     DATA                         : DESCRIPTION      
#----.----     ---------                    : -----------------
STRT .FT          0.000                     : Start
STOP .FT       1712.592                     : Stop
STEP .FT          0.042                     : Step increment
NULL .         -999.250                     : Null value
COMP .                                      : Company
WELL .                                      : Well
FLD  .                                      : Field
PROV .                                      : Province / County
CTRY .                                      : State / Country
LOC  .                                      : Location
LOC2 .                                      : Location 2
SRVC .         Weatherford                  : Service company
UWI  .                                      : Unique Well ID
LL1  .                                      : Latitude
LL2  .                                      : Longitude
DATE .         20-Mar-2008                  : Logging date
#
~Curve Information
#MNEM.UNIT     API CODES                    : CURVE DESCRIPTION
#----.----     ---------                    : -----------------
DEPT .FT       00 001 00 00                 : Logged depth
GRTH .GAPI     31 790 00 00                 : GAMMA FROM CALIPER TOOL
COLL .CPS      00 000 00 00                 : CASING COLLAR LOCATOR
TEMP .DEGC     80 660 00 00                 : BOREHOLE TEMPERATURE
CATH .         00 000 00 00                 : THREE ARM CALIPER
DIFT .         00 000 00 00                 : DIFFERENTIAL TEMPERATURE
Bit IN.e                                    : MM
#
~Parameter Information
#MNEM.UNIT     VALUE                        : DESCRIPTION      
#----.----     ---------                    : -----------------
RNID .         temp                         : Run ID
EREF .FEET                                  : Elevation of depth reference
DREF .                                      : Depth reference
GL   .FEET                                  : Ground elevation
RUN  .                                      : Run number
TDD  .FEET                                  : TD (driller)
TDL  .FEET                                  : TD (logger)
CSGD .FEET                                  : Casing bottom (driller)
CSGL .FEET                                  : Casing bottom (logger)
BS   .INCHES                                : Bit size
MUD  .                                      : Mud type
MUDD .G/C3                                  : Mud density
MUDV .CP                                    : Mud viscosity
PH   .                                      : Mud pH
FL   .ML/30MIN                              : Mud fluid loss rate
MUDS .                                      : Mud sample source
TMAX .DEGC                                  : Max recorder temperature
TIMC .DAY/HR                                : Time circulation ended
TIML .DAY/HR                                : Time logger at bottom
UNIT .                                      : Equipment ID
BASE .                                      : Equipment base location
ENG  .                                      : Recording engineer
WIT  .                                      : Witnessed by
CSGS .INCHES   0.000                        : Casing size
CSGW .LB/FT    0.00                         : Casing weight
#
~Other Information
--------------------------------------------------------------------------------

--------------------------------------------------------------------------------
~A    DEPT       GRTH       COLL       TEMP       CATH       DIFT     Bit-IN
# ...
  1699.152   -999.250     -0.446     49.606      6.033     -0.017   -999.250
  1699.194   -999.250     -0.447     49.614      6.007     -0.016   -999.250
  1699.236   -999.250     -0.450     49.619      5.980     -0.016   -999.250
  1699.278   -999.250     -0.452     49.634      5.953     -0.016   -999.250
  1699.320   -999.250     -0.455     49.620      5.930     -0.015   -999.250
  1699.362   -999.250     -0.453     49.629      5.910     -0.015   -999.250
  1699.404   -999.250     -0.450     49.627      5.894     -0.015   -999.250
  1699.446   -999.250     -0.450     49.629      5.880     -0.015   -999.250
  1699.488   -999.250     -0.449     49.617      5.869     -0.014   -999.250
  1699.530   -999.250     -0.448     49.619      5.861     -0.014   -999.250
  1699.572   -999.250     -0.445     49.621      5.855     -0.014   -999.250
  1699.614   -999.250     -0.449     49.617      5.851     -0.014   -999.250
  1699.656   -999.250     -0.450     49.621      5.849     -0.014   -999.250
  1699.698   -999.250     -0.451     49.624      5.846     -0.013   -999.250
  1699.740   -999.250     -0.449     49.633      5.842     -0.013   -999.250
  1699.782   -999.250     -0.451     49.625      5.837     -0.013   -999.250
  1699.824   -999.250     -0.449     49.636      5.831     -0.013   -999.250
  1699.866   -999.250     -0.446     49.642      5.822     -0.013   -999.250
  1699.908   -999.250     -0.447     49.635      5.811     -0.012   -999.250
  1699.950   -999.250     -0.445     49.640      5.796     -0.012   -999.250
  1699.992   -999.250     -0.444     49.646      5.782     -0.012   -999.250
  1700.034   -999.250     -0.446     49.631      5.769     -0.012   -999.250
  1700.076   -999.250     -0.448     49.641      5.757     -0.011   -999.250
  1700.118   -999.250     -0.453     49.641      5.746     -0.011   -999.250
  1700.160   -999.250     -0.459     49.641      5.735     -0.011   -999.250
  1700.202   -999.250     -0.454     49.649      5.725     -0.011   -999.250
  1700.244   -999.250     -0.448     49.649      5.717     -0.011   -999.250
  1700.286   -999.250     -0.444     49.655      5.713     -0.011   -999.250
  1700.328   -999.250     -0.443     49.653      5.715     -0.010   -999.250
  1700.370   -999.250     -0.445     49.638      5.721     -0.010   -999.250
  1700.412   -999.250     -0.445     49.643      5.729     -0.010   -999.250
  1700.454   -999.250     -0.443     49.645      5.736     -0.010   -999.250
  1700.496   -999.250     -0.441     49.634      5.739     -0.010   -999.250
  1700.538   -999.250     -0.442     49.645      5.741     -0.010   -999.250
  1700.580   -999.250     -0.440     49.635      5.741     -0.010   -999.250
  1700.622   -999.250     -0.440     49.640      5.741     -0.010   -999.250
  1700.664   -999.250     -0.438     49.629      5.740     -0.010   -999.250
  1700.706   -999.250     -0.438     49.641      5.738     -0.010   -999.250
  1700.748   -999.250     -0.438     49.639      5.735     -0.011   -999.250
  1700.790   -999.250     -0.435     49.638      5.731     -0.011   -999.250
  1700.832   -999.250     -0.430     49.637      5.728     -0.011   -999.250
  1700.874   -999.250     -0.430     49.640      5.725     -0.011   -999.250
  1700.916   -999.250     -0.436     49.629      5.721     -0.011   -999.250
  1700.958   -999.250     -0.441     49.631      5.718     -0.011   -999.250
  1701.000   -999.250     -0.439     49.638      5.715     -0.012   -999.250
  1701.042   -999.250     -0.437     49.649      5.714     -0.012   -999.250
  1701.084   -999.250     -0.436     49.634      5.713     -0.012   -999.250
  1701.126   -999.250     -0.437     49.632      5.714     -0.012   -999.250
  1701.168   -999.250     -0.441     49.645      5.717     -0.013   -999.250
  1701.210   -999.250     -0.446     49.647      5.723     -0.013   -999.250
  1701.252   -999.250     -0.450     49.647      5.732     -0.013   -999.250
  1701.294   -999.250     -0.449     49.645      5.740     -0.013   -999.250
  1701.336   -999.250     -0.446     49.642      5.750     -0.014   -999.250
  1701.378   -999.250     -0.435     49.649      5.755     -0.014   -999.250
  1701.420   -999.250     -0.431     49.649      5.757     -0.014   -999.250
  1701.462   -999.250     -0.446     49.654      5.755     -0.014   -999.250
  1701.504   -999.250     -0.472     49.644      5.750     -0.015   -999.250
  1701.546   -999.250     -0.494     49.641      5.744     -0.015   -999.250
  1701.588   -999.250     -0.497     49.645      5.736     -0.015   -999.250
  1701.630   -999.250     -0.494     49.642      5.727     -0.015   -999.250
  1701.672   -999.250     -0.492     49.636      5.716     -0.016   -999.250
  1701.714   -999.250     -0.494     49.654      5.709     -0.016   -999.250
  1701.756   -999.250     -0.497     49.655      5.705     -0.016   -999.250
  1701.798   -999.250     -0.498     49.659      5.706     -0.016   -999.250
  1701.840   -999.250     -0.500     49.665      5.711     -0.017   -999.250
  1701.882   -999.250     -0.501     49.649      5.720     -0.017   -999.250
  1701.924   -999.250     -0.501     49.643      5.730     -0.017   -999.250
  1701.966   -999.250     -0.500     49.658      5.740     -0.017   -999.250
  1702.008   -999.250     -0.495     49.676      5.752     -0.018   -999.250
  1702.050   -999.250     -0.492     49.666      5.764     -0.018   -999.250
  1702.092   -999.250     -0.492     49.658      5.777     -0.018   -999.250
  1702.134   -999.250     -0.479     49.662      5.790     -0.018   -999.250
  1702.176   -999.250     -0.448     49.659      5.802     -0.018   -999.250
  1702.218   -999.250     -0.418     49.666      5.812     -0.019   -999.250
  1702.260   -999.250     -0.406     49.677      5.819     -0.019   -999.250
  1702.302   -999.250     -0.408     49.677      5.823     -0.019   -999.250
  1702.344   -999.250     -0.412     49.682      5.823     -0.019   -999.250
  1702.386   -999.250     -0.412     49.673      5.822     -0.019   -999.250
  1702.428   -999.250     -0.408     49.671      5.820     -0.020   -999.250
  1702.470   -999.250     -0.406     49.682      5.819     -0.020   -999.250
  1702.512   -999.250     -0.401     49.679      5.819     -0.020   -999.250
  1702.554   -999.250     -0.398     49.674      5.819     -0.020   -999.250
  1702.596   -999.250   -999.250     49.689      5.817     -0.020   -999.250
  1702.638   -999.250   -999.250     49.694      5.817     -0.020   -999.250
  1702.680   -999.250   -999.250     49.685      5.817     -0.021   -999.250
  1702.722   -999.250   -999.250     49.683      5.819     -0.021   -999.250
  1702.764   -999.250   -999.250     49.704      5.823     -0.021   -999.250
  1702.806   -999.250   -999.250     49.700      5.827     -0.021   -999.250
  1702.848   -999.250   -999.250     49.709      5.832     -0.021   -999.250
  1702.890   -999.250   -999.250     49.719      5.836     -0.021   -999.250
  1702.932   -999.250   -999.250     49.713      5.838     -0.021   -999.250
  1702.974   -999.250   -999.250     49.711      5.839     -0.021   -999.250
  1703.016   -999.250   -999.250     49.720      5.840     -0.021   -999.250
  1703.058   -999.250   -999.250     49.730      5.840     -0.021   -999.250
  1703.100   -999.250   -999.250     49.730      5.840     -0.021   -999.250
  1703.142   -999.250   -999.250     49.728      5.840     -0.021   -999.250
  1703.184   -999.250   -999.250     49.719      5.841     -0.021   -999.250
  1703.226   -999.250   -999.250     49.737      5.842     -0.021   -999.250
  1703.268   -999.250   -999.250     49.742      5.844     -0.021   -999.250
  1703.310   -999.250   -999.250     49.732      5.846     -0.020   -999.250
  1703.352   -999.250   -999.250     49.736      5.849     -0.020   -999.250
  1703.394   -999.250   -999.250     49.741      5.852     -0.020   -999.250
  1703.436   -999.250   -999.250     49.739      5.854     -0.020   -999.250
  1703.478   -999.250   -999.250     49.742      5.854     -0.020   -999.250
