~Version Information
VERS.          2.00                         : CWLS Log ASCII Standard - Version 2.00
WRAP.          NO                           : One line per depth step
#
~Well Information
#MNEM.UNIT     DATA                         : DESCRIPTION      
#----.----     ---------                    : -----------------
STRT .FT          0.000                     : Start
STOP .FT       1712.592                     : Stop
STEP .FT          0.042                     : Step increment
NULL .         -999.250                     : Null value
COMP .                                      : Company
WELL .                                      : Well
FLD  .                                      : Field
PROV .                                      : Province / County
CTRY .                                      : State / Country
LOC  .                                      : Location
LOC2 .                                      : Location 2
SRVC .         Weatherford                  : Service company
UWI  .                                      : Unique Well ID
LL1  .                                      : Latitude
LL2  .                                      : Longitude
DATE .         20-Mar-2008                  : Logging date
#
~Curve Information
#MNEM.UNIT     API CODES                    : CURVE DESCRIPTION
#----.----     ---------                    : -----------------
DEPT .FT       00 001 00 00                 : Logged depth
GRTH .GAPI     31 790 00 00                 : GAMMA FROM CALIPER TOOL
COLL .CPS      00 000 00 00                 : CASING COLLAR LOCATOR
TEMP .DEGC     80 660 00 00                 : BOREHOLE TEMPERATURE
CATH .         00 000 00 00                 : THREE ARM CALIPER
DIFT .         00 000 00 00                 : DIFFERENTIAL TEMPERATURE
Bit IN.e                                    : MM
#
~Parameter Information
#MNEM.UNIT     VALUE                        : DESCRIPTION      
#----.----     ---------                    : -----------------
RNID .         temp                         : Run ID
EREF .FEET                                  : Elevation of depth reference
DREF .                                      : Depth reference
GL   .FEET                                  : Ground elevation
RUN  .                                      : Run number
TDD  .FEET                                  : TD (driller)
TDL  .FEET                                  : TD (logger)
CSGD .FEET                                  : Casing bottom (driller)
CSGL .FEET                                  : Casing bottom (logger)
BS   .INCHES                                : Bit size
MUD  .                                      : Mud type
MUDD .G/C3                                  : Mud density
MUDV .CP                                    : Mud viscosity
PH   .                                      : Mud pH
FL   .ML/30MIN                              : Mud fluid loss rate
MUDS .                                      : Mud sample source
TMAX .DEGC                                  : Max recorder temperature
TIMC .DAY/HR                                : Time circulation ended
TIML .DAY/HR                                : Time logger at bottom
UNIT .                                      : Equipment ID
BASE .                                      : Equipment base location
ENG  .                                      : Recording engineer
WIT  .                                      : Witnessed by
CSGS .INCHES   0.000                        : Casing size
CSGW .LB/FT    0.00                         : Casing weight
#
~Other Information
--------------------------------------------------------------------------------

--------------------------------------------------------------------------------
~A    DEPT       GRTH       COLL       TEMP       CATH       DIFT     Bit-IN
# ...
  1472.016    126.593     -0.443     47.423      5.826     -0.004   -999.250
  1472.058    126.067     -0.441     47.411      5.829     -0.004   -999.250
  1472.100    125.647     -0.441     47.411      5.830     -0.004   -999.250
  1472.142    125.236     -0.441     47.407      5.832     -0.004   -999.250
  1472.184    124.927     -0.443     47.391      5.832     -0.004   -999.250
  1472.226    124.655     -0.443     47.398      5.832     -0.004   -999.250
  1472.268    124.548     -0.441     47.410      5.832     -0.004   -999.250
  1472.310    124.686     -0.442     47.397      5.831     -0.004   -999.250
  1472.352    124.811     -0.443     47.403      5.831     -0.005   -999.250
  1472.394    124.933     -0.444     47.402      5.831     -0.005   -999.250
  1472.436    125.140     -0.444     47.396      5.831     -0.005   -999.250
  1472.478    125.574     -0.443     47.402      5.831     -0.005   -999.250
  1472.520    125.960     -0.444     47.403      5.831     -0.005   -999.250
  1472.562    126.177     -0.444     47.401      5.830     -0.005   -999.250
  1472.604    126.363     -0.442     47.401      5.828     -0.005   -999.250
  1472.646    126.503     -0.443     47.393      5.826     -0.005   -999.250
  1472.688    126.764     -0.443     47.394      5.823     -0.005   -999.250
  1472.730    127.067     -0.444     47.407      5.820     -0.005   -999.250
  1472.772    127.132     -0.444     47.402      5.818     -0.005   -999.250
  1472.814    126.816     -0.443     47.413      5.816     -0.005   -999.250
  1472.856    126.395     -0.441     47.413      5.814     -0.005   -999.250
  1472.898    126.115     -0.441     47.414      5.812     -0.005   -999.250
  1472.940    125.940     -0.442     47.419      5.811     -0.004   -999.250
  1472.982    125.847     -0.442     47.416      5.809     -0.004   -999.250
  1473.024    125.599     -0.440     47.426      5.808     -0.004   -999.250
  1473.066    125.164     -0.441     47.422      5.807     -0.004   -999.250
  1473.108    124.894     -0.440     47.409      5.806     -0.004   -999.250
  1473.150    124.690     -0.440     47.404      5.807     -0.004   -999.250
  1473.192    124.599     -0.441     47.402      5.807     -0.004   -999.250
  1473.234    124.507     -0.440     47.416      5.808     -0.004   -999.250
  1473.276    124.465     -0.442     47.408      5.809     -0.003   -999.250
  1473.318    124.230     -0.441     47.416      5.810     -0.003   -999.250
  1473.360    123.838     -0.441     47.434      5.811     -0.004   -999.250
  1473.402    123.629     -0.441     47.426      5.813     -0.004   -999.250
  1473.444    123.362     -0.441     47.423      5.816     -0.004   -999.250
  1473.486    123.041     -0.442     47.427      5.819     -0.004   -999.250
  1473.528    122.863     -0.442     47.431      5.822     -0.003   -999.250
  1473.570    122.707     -0.443     47.427      5.826     -0.003   -999.250
  1473.612    122.616     -0.442     47.425      5.829     -0.003   -999.250
  1473.654    122.717     -0.442     47.409      5.833     -0.003   -999.250
  1473.696    123.027     -0.443     47.429      5.838     -0.003   -999.250
  1473.738    123.386     -0.444     47.414      5.842     -0.003   -999.250
  1473.780    123.884     -0.443     47.426      5.848     -0.003   -999.250
  1473.822    124.653     -0.444     47.425      5.853     -0.003   -999.250
  1473.864    125.577     -0.444     47.417      5.857     -0.003   -999.250
  1473.906    126.498     -0.445     47.409      5.862     -0.003   -999.250
  1473.948    127.398     -0.445     47.409      5.867     -0.003   -999.250
  1473.990    128.420     -0.445     47.423      5.872     -0.003   -999.250
  1474.032    129.568     -0.445     47.425      5.877     -0.003   -999.250
  1474.074    130.697     -0.445     47.427      5.883     -0.003   -999.250
  1474.116    131.594     -0.445     47.417      5.888     -0.003   -999.250
  1474.158    132.273     -0.444     47.420      5.894     -0.003   -999.250
  1474.200    132.853     -0.444     47.415      5.899     -0.003   -999.250
  1474.242    133.378     -0.443     47.412      5.902     -0.003   -999.250
  1474.284    133.831     -0.444     47.417      5.905     -0.003   -999.250
  1474.326    134.321     -0.444     47.417      5.908     -0.003   -999.250
  1474.368    134.690     -0.444     47.411      5.910     -0.003   -999.250
  1474.410    134.922     -0.443     47.420      5.912     -0.003   -999.250
  1474.452    135.242     -0.442     47.417      5.913     -0.003   -999.250
  1474.494    135.635     -0.444     47.417      5.914     -0.003   -999.250
  1474.536    135.948     -0.445     47.427      5.913     -0.003   -999.250
  1474.578    136.218     -0.441     47.436      5.913     -0.003   -999.250
  1474.620    136.521     -0.442     47.443      5.912     -0.003   -999.250
  1474.662    136.706     -0.440     47.430      5.913     -0.003   -999.250
  1474.704    136.706     -0.443     47.420      5.914     -0.003   -999.250
  1474.746    136.722     -0.445     47.406      5.917     -0.003   -999.250
  1474.788    136.751     -0.444     47.414      5.921     -0.003   -999.250
  1474.830    136.699     -0.442     47.435      5.927     -0.003   -999.250
  1474.872    136.788     -0.444     47.429      5.935     -0.003   -999.250
  1474.914    137.006     -0.443     47.448      5.945     -0.003   -999.250
  1474.956    137.041     -0.443     47.439      5.954     -0.003   -999.250
  1474.998    136.972     -0.442     47.427      5.962     -0.002   -999.250
  1475.040    137.058     -0.443     47.428      5.969     -0.002   -999.250
  1475.082    136.894     -0.443     47.430      5.973     -0.002   -999.250
  1475.124    136.574     -0.443     47.430      5.977     -0.002   -999.250
  1475.166    136.327     -0.442     47.414      5.981     -0.002   -999.250
  1475.208    136.332     -0.440     47.428      5.985     -0.002   -999.250
  1475.250    136.036     -0.442     47.420      5.988     -0.002   -999.250
  1475.292    135.428     -0.443     47.417      5.990     -0.002   -999.250
  1475.334    134.886     -0.442     47.416      5.990     -0.002   -999.250
  1475.376    134.305     -0.441     47.423      5.990     -0.002   -999.250
  1475.418    133.839     -0.441     47.430      5.990     -0.002   -999.250
  1475.460    133.712     -0.440     47.423      5.989     -0.002   -999.250
  1475.502    133.763     -0.441     47.424      5.988     -0.002   -999.250
  1475.544    133.789     -0.441     47.411      5.987     -0.002   -999.250
  1475.586    133.671     -0.443     47.420      5.987     -0.002   -999.250
  1475.628    133.723     -0.443     47.424      5.989     -0.002   -999.250
  1475.670    134.061     -0.442     47.412      5.990     -0.002   -999.250
  1475.712    134.500     -0.440     47.420      5.991     -0.002   -999.250
  1475.754    134.905     -0.439     47.432      5.993     -0.002   -999.250
  1475.796    135.253     -0.440     47.426      5.995     -0.002   -999.250
  1475.838    135.510     -0.441     47.437      5.997     -0.002   -999.250
  1475.880    135.618     -0.441     47.428      5.999     -0.002   -999.250
  1475.922    135.822     -0.442     47.433      6.002     -0.002   -999.250
  1475.964    136.341     -0.440     47.434      6.004     -0.001   -999.250
  1476.006    136.821     -0.440     47.446      6.005     -0.001   -999.250
  1476.048    137.113     -0.440     47.443      6.005     -0.001   -999.250
  1476.090    137.218     -0.441     47.424      6.005     -0.001   -999.250
  1476.132    137.587     -0.439     47.440      6.003     -0.001   -999.250
  1476.174    137.832     -0.439     47.436      6.000     -0.001   -999.250
  1476.216    138.237     -0.440     47.434      5.995     -0.001   -999.250
  1476.258    138.630     -0.440     47.436      5.988     -0.001   -999.250
  1476.300    138.847     -0.440     47.409      5.980     -0.001   -999.250
  1476.342    138.928     -0.438     47.421      5.973     -0.001   -999.250
