~Version Information
VERS.          2.00                         : CWLS Log ASCII Standard - Version 2.00
WRAP.          NO                           : One line per depth step
#
~Well Information
#MNEM.UNIT     DATA                         : DESCRIPTION      
#----.----     ---------                    : -----------------
STRT .FT          0.000                     : Start
STOP .FT       1712.592                     : Stop
STEP .FT          0.042                     : Step increment
NULL .         -999.250                     : Null value
COMP .                                      : Company
WELL .                                      : Well
FLD  .                                      : Field
PROV .                                      : Province / County
CTRY .                                      : State / Country
LOC  .                                      : Location
LOC2 .                                      : Location 2
SRVC .         Weatherford                  : Service company
UWI  .                                      : Unique Well ID
LL1  .                                      : Latitude
LL2  .                                      : Longitude
DATE .         20-Mar-2008                  : Logging date
#
~Curve Information
#MNEM.UNIT     API CODES                    : CURVE DESCRIPTION
#----.----     ---------                    : -----------------
DEPT .FT       00 001 00 00                 : Logged depth
GRTH .GAPI     31 790 00 00                 : GAMMA FROM CALIPER TOOL
COLL .CPS      00 000 00 00                 : CASING COLLAR LOCATOR
TEMP .DEGC     80 660 00 00                 : BOREHOLE TEMPERATURE
CATH .         00 000 00 00                 : THREE ARM CALIPER
DIFT .         00 000 00 00                 : DIFFERENTIAL TEMPERATURE
Bit IN.e                                    : MM
#
~Parameter Information
#MNEM.UNIT     VALUE                        : DESCRIPTION      
#----.----     ---------                    : -----------------
RNID .         temp                         : Run ID
EREF .FEET                                  : Elevation of depth reference
DREF .                                      : Depth reference
GL   .FEET                                  : Ground elevation
RUN  .                                      : Run number
TDD  .FEET                                  : TD (driller)
TDL  .FEET                                  : TD (logger)
CSGD .FEET                                  : Casing bottom (driller)
CSGL .FEET                                  : Casing bottom (logger)
BS   .INCHES                                : Bit size
MUD  .                                      : Mud type
MUDD .G/C3                                  : Mud density
MUDV .CP                                    : Mud viscosity
PH   .                                      : Mud pH
FL   .ML/30MIN                              : Mud fluid loss rate
MUDS .                                      : Mud sample source
TMAX .DEGC                                  : Max recorder temperature
TIMC .DAY/HR                                : Time circulation ended
TIML .DAY/HR                                : Time logger at bottom
UNIT .                                      : Equipment ID
BASE .                                      : Equipment base location
ENG  .                                      : Recording engineer
WIT  .                                      : Witnessed by
CSGS .INCHES   0.000                        : Casing size
CSGW .LB/FT    0.00                         : Casing weight
#
~Other Information
--------------------------------------------------------------------------------

--------------------------------------------------------------------------------
~A    DEPT       GRTH       COLL       TEMP       CATH       DIFT     Bit-IN
# ...
   227.136    106.961     -0.259     35.675      3.488     -0.006   -999.250
   227.178    106.842     -0.244     35.662      3.488     -0.007   -999.250
   227.220    106.690     -0.221     35.667      3.488     -0.008   -999.250
   227.262    106.619     -0.197     35.665      3.488     -0.008   -999.250
   227.304    106.603     -0.178     35.662      3.487     -0.009   -999.250
   227.346    106.616     -0.171     35.680      3.487     -0.010   -999.250
   227.388    106.769     -0.185     35.681      3.487     -0.010   -999.250
   227.430    106.952     -0.222     35.688      3.487     -0.011   -999.250
   227.472    107.043     -0.264     35.666      3.488     -0.011   -999.250
   227.514    107.043     -0.299     35.679      3.489     -0.012   -999.250
   227.556    106.913     -0.322     35.694      3.489     -0.012   -999.250
   227.598    106.730     -0.338     35.656      3.488     -0.012   -999.250
   227.640    106.403     -0.361     35.691      3.488     -0.012   -999.250
   227.682    106.108     -0.386     35.683      3.488     -0.012   -999.250
   227.724    105.631     -0.411     35.676      3.488     -0.012   -999.250
   227.766    105.024     -0.429     35.679      3.488     -0.012   -999.250
   227.808    104.460     -0.440     35.694      3.488     -0.012   -999.250
   227.850    103.866     -0.438     35.676      3.487     -0.012   -999.250
   227.892    103.329     -0.439     35.689      3.487     -0.012   -999.250
   227.934    102.766     -0.439     35.683      3.487     -0.012   -999.250
   227.976    102.231     -0.443     35.685      3.487     -0.013   -999.250
   228.018    101.511     -0.450     35.688      3.488     -0.013   -999.250
   228.060    100.711     -0.447     35.698      3.489     -0.013   -999.250
   228.102     99.782     -0.437     35.685      3.489     -0.013   -999.250
   228.144     98.817     -0.433     35.705      3.487     -0.013   -999.250
   228.186     97.954     -0.428     35.695      3.485     -0.013   -999.250
   228.228     97.363     -0.423     35.659      3.483     -0.013   -999.250
   228.270     96.740     -0.421     35.677      3.482     -0.013   -999.250
   228.312     96.161     -0.418     35.677      3.481     -0.014   -999.250
   228.354     95.656     -0.409     35.690      3.481     -0.014   -999.250
   228.396     95.519     -0.392     35.702      3.481     -0.014   -999.250
   228.438     95.613     -0.380     35.680      3.481     -0.014   -999.250
   228.480     95.632     -0.372     35.687      3.480     -0.014   -999.250
   228.522     95.558     -0.377     35.680      3.481     -0.014   -999.250
   228.564     95.386     -0.385     35.694      3.480     -0.015   -999.250
   228.606     95.066     -0.388     35.684      3.480     -0.015   -999.250
   228.648     94.555     -0.393     35.706      3.481     -0.015   -999.250
   228.690     94.107     -0.397     35.679      3.482     -0.015   -999.250
   228.732     93.581     -0.400     35.659      3.482     -0.015   -999.250
   228.774     93.039     -0.408     35.695      3.482     -0.015   -999.250
   228.816     92.480     -0.415     35.688      3.481     -0.015   -999.250
   228.858     91.745     -0.418     35.686      3.481     -0.015   -999.250
   228.900     90.916     -0.423     35.712      3.481     -0.016   -999.250
   228.942     90.166     -0.427     35.701      3.480     -0.016   -999.250
   228.984     89.585     -0.427     35.714      3.480     -0.016   -999.250
   229.026     89.085     -0.428     35.695      3.480     -0.016   -999.250
   229.068     88.347     -0.431     35.687      3.480     -0.016   -999.250
   229.110     87.413     -0.441     35.708      3.481     -0.016   -999.250
   229.152     86.486     -0.446     35.707      3.481     -0.015   -999.250
   229.194     85.773     -0.449     35.707      3.482     -0.015   -999.250
   229.236     85.172     -0.452     35.733      3.482     -0.015   -999.250
   229.278     84.654     -0.455     35.707      3.482     -0.015   -999.250
   229.320     84.150     -0.455     35.713      3.482     -0.015   -999.250
   229.362     83.656     -0.450     35.724      3.481     -0.015   -999.250
   229.404     83.261     -0.444     35.726      3.481     -0.015   -999.250
   229.446     83.022     -0.441     35.751      3.481     -0.014   -999.250
   229.488     82.653     -0.440     35.830      3.481     -0.014   -999.250
   229.530     82.239     -0.437     35.838      3.482     -0.013   -999.250
   229.572     82.037     -0.434     35.833      3.482     -0.012   -999.250
   229.614     81.938     -0.435     35.835      3.482     -0.011   -999.250
   229.656     81.858     -0.435     35.821      3.482     -0.010   -999.250
   229.698     81.618     -0.436     35.821      3.482     -0.010   -999.250
   229.740     81.499     -0.435     35.824      3.481     -0.009   -999.250
   229.782     81.756     -0.431     35.830      3.481     -0.008   -999.250
   229.824     82.213     -0.427     35.835      3.482     -0.007   -999.250
   229.866     82.878     -0.423     35.837      3.482     -0.006   -999.250
   229.908     83.343     -0.419     35.832      3.482     -0.005   -999.250
   229.950     83.513     -0.419     35.830      3.482     -0.005   -999.250
   229.992     83.644     -0.421     35.808      3.482     -0.004   -999.250
   230.034     83.817     -0.425     35.827      3.482     -0.003   -999.250
   230.076     83.886     -0.433     35.839      3.481     -0.003   -999.250
   230.118     83.964     -0.434     35.808      3.480     -0.002   -999.250
   230.160     83.922     -0.433     35.741      3.479     -0.001   -999.250
   230.202     83.888     -0.432     35.700      3.479     -0.001   -999.250
   230.244     83.884     -0.434     35.711      3.479     -0.002   -999.250
   230.286     83.910     -0.438     35.703      3.480     -0.002   -999.250
   230.328     83.981     -0.438     35.716      3.480     -0.002   -999.250
   230.370     84.076     -0.436     35.737      3.480     -0.002   -999.250
   230.412     84.239     -0.434     35.719      3.480     -0.002   -999.250
   230.454     84.113     -0.432     35.719      3.480     -0.002   -999.250
   230.496     83.845     -0.433     35.703      3.480     -0.002   -999.250
   230.538     83.509     -0.431     35.711      3.480     -0.002   -999.250
   230.580     83.213     -0.431     35.732      3.480     -0.002   -999.250
   230.622     83.096     -0.429     35.726      3.480     -0.002   -999.250
   230.664     83.051     -0.425     35.756      3.479     -0.003   -999.250
   230.706     82.918     -0.421     35.738      3.479     -0.002   -999.250
   230.748     82.867     -0.419     35.715      3.478     -0.002   -999.250
   230.790     82.733     -0.420     35.722      3.478     -0.002   -999.250
   230.832     82.663     -0.423     35.739      3.478     -0.002   -999.250
   230.874     82.673     -0.424     35.750      3.478     -0.002   -999.250
   230.916     82.594     -0.427     35.734      3.478     -0.002   -999.250
   230.958     82.426     -0.428     35.734      3.478     -0.002   -999.250
   231.000     82.272     -0.429     35.727      3.478     -0.002   -999.250
   231.042     82.295     -0.433     35.718      3.479     -0.002   -999.250
   231.084     82.409     -0.436     35.723      3.479     -0.002   -999.250
   231.126     82.699     -0.443     35.733      3.479     -0.002   -999.250
   231.168     83.097     -0.444     35.742      3.479     -0.002   -999.250
   231.210     83.654     -0.446     35.755      3.478     -0.002   -999.250
   231.252     84.234     -0.447     35.740      3.478     -0.001   -999.250
   231.294     84.596     -0.447     35.727      3.479     -0.001   -999.250
   231.336     85.020     -0.448     35.718      3.479     -0.001   -999.250
   231.378     85.512     -0.450     35.721      3.479     -0.002   -999.250
   231.420     85.839     -0.451     35.732      3.479     -0.002   -999.250
   231.462     86.062     -0.456     35.744      3.480     -0.001   -999.250
