~Version Information
VERS.          2.00                         : CWLS Log ASCII Standard - Version 2.00
WRAP.          NO                           : One line per depth step
#
~Well Information
#MNEM.UNIT     DATA                         : DESCRIPTION      
#----.----     ---------                    : -----------------
STRT .FT          0.000                     : Start
STOP .FT       1712.592                     : Stop
STEP .FT          0.042                     : Step increment
NULL .         -999.250                     : Null value
COMP .                                      : Company
WELL .                                      : Well
FLD  .                                      : Field
PROV .                                      : Province / County
CTRY .                                      : State / Country
LOC  .                                      : Location
LOC2 .                                      : Location 2
SRVC .         Weatherford                  : Service company
UWI  .                                      : Unique Well ID
LL1  .                                      : Latitude
LL2  .                                      : Longitude
DATE .         20-Mar-2008                  : Logging date
#
~Curve Information
#MNEM.UNIT     API CODES                    : CURVE DESCRIPTION
#----.----     ---------                    : -----------------
DEPT .FT       00 001 00 00                 : Logged depth
GRTH .GAPI     31 790 00 00                 : GAMMA FROM CALIPER TOOL
COLL .CPS      00 000 00 00                 : CASING COLLAR LOCATOR
TEMP .DEGC     80 660 00 00                 : BOREHOLE TEMPERATURE
CATH .         00 000 00 00                 : THREE ARM CALIPER
DIFT .         00 000 00 00                 : DIFFERENTIAL TEMPERATURE
Bit IN.e                                    : MM
#
~Parameter Information
#MNEM.UNIT     VALUE                        : DESCRIPTION      
#----.----     ---------                    : -----------------
RNID .         temp                         : Run ID
EREF .FEET                                  : Elevation of depth reference
DREF .                                      : Depth reference
GL   .FEET                                  : Ground elevation
RUN  .                                      : Run number
TDD  .FEET                                  : TD (driller)
TDL  .FEET                                  : TD (logger)
CSGD .FEET                                  : Casing bottom (driller)
CSGL .FEET                                  : Casing bottom (logger)
BS   .INCHES                                : Bit size
MUD  .                                      : Mud type
MUDD .G/C3                                  : Mud density
MUDV .CP                                    : Mud viscosity
PH   .                                      : Mud pH
FL   .ML/30MIN                              : Mud fluid loss rate
MUDS .                                      : Mud sample source
TMAX .DEGC                                  : Max recorder temperature
TIMC .DAY/HR                                : Time circulation ended
TIML .DAY/HR                                : Time logger at bottom
UNIT .                                      : Equipment ID
BASE .                                      : Equipment base location
ENG  .                                      : Recording engineer
WIT  .                                      : Witnessed by
CSGS .INCHES   0.000                        : Casing size
CSGW .LB/FT    0.00                         : Casing weight
#
~Other Information
--------------------------------------------------------------------------------

--------------------------------------------------------------------------------
~A    DEPT       GRTH       COLL       TEMP       CATH       DIFT     Bit-IN
# ...
   567.840     49.868     -0.426     38.363      3.479     -0.008   -999.250
   567.882     49.780     -0.407     38.360      3.479     -0.008   -999.250
   567.924     49.729     -0.389     38.385      3.479     -0.008   -999.250
   567.966     49.612     -0.376     38.379      3.479     -0.008   -999.250
   568.008     49.412     -0.371     38.378      3.478     -0.008   -999.250
   568.050     49.184     -0.382     38.384      3.478     -0.008   -999.250
   568.092     48.995     -0.411     38.395      3.478     -0.008   -999.250
   568.134     48.706     -0.450     38.385      3.476     -0.008   -999.250
   568.176     48.308     -0.498     38.354      3.476     -0.008   -999.250
   568.218     47.801     -0.571     38.372      3.475     -0.008   -999.250
   568.260     47.334     -0.649     38.382      3.475     -0.008   -999.250
   568.302     47.044     -0.685     38.369      3.475     -0.008   -999.250
   568.344     46.776     -0.650     38.374      3.476     -0.008   -999.250
   568.386     46.547     -0.564     38.391      3.476     -0.008   -999.250
   568.428     46.345     -0.508     38.372      3.476     -0.008   -999.250
   568.470     46.153     -0.508     38.368      3.475     -0.008   -999.250
   568.512     45.985     -0.526     38.382      3.475     -0.009   -999.250
   568.554     45.929     -0.543     38.383      3.475     -0.009   -999.250
   568.596     46.024     -0.546     38.380      3.476     -0.009   -999.250
   568.638     46.198     -0.541     38.373      3.475     -0.009   -999.250
   568.680     46.394     -0.522     38.369      3.476     -0.009   -999.250
   568.722     46.606     -0.485     38.365      3.476     -0.009   -999.250
   568.764     46.837     -0.431     38.358      3.476     -0.009   -999.250
   568.806     47.075     -0.405     38.375      3.476     -0.010   -999.250
   568.848     47.309     -0.415     38.378      3.476     -0.010   -999.250
   568.890     47.496     -0.443     38.396      3.475     -0.010   -999.250
   568.932     47.668     -0.484     38.384      3.476     -0.010   -999.250
   568.974     47.805     -0.523     38.401      3.475     -0.010   -999.250
   569.016     47.972     -0.550     38.398      3.475     -0.010   -999.250
   569.058     48.323     -0.572     38.373      3.476     -0.010   -999.250
   569.100     48.747     -0.604     38.367      3.476     -0.010   -999.250
   569.142     49.183     -0.636     38.385      3.475     -0.010   -999.250
   569.184     49.755     -0.660     38.397      3.475     -0.010   -999.250
   569.226     50.445     -0.666     38.403      3.475     -0.010   -999.250
   569.268     51.057     -0.672     38.402      3.475     -0.010   -999.250
   569.310     51.520     -0.671     38.384      3.475     -0.011   -999.250
   569.352     51.923     -0.676     38.395      3.476     -0.011   -999.250
   569.394     52.355     -0.714     38.385      3.476     -0.011   -999.250
   569.436     52.802     -0.801     38.395      3.476     -0.011   -999.250
   569.478     53.215     -0.856     38.381      3.477     -0.011   -999.250
   569.520     53.586     -0.834     38.397      3.478     -0.011   -999.250
   569.562     53.911     -0.763     38.416      3.478     -0.011   -999.250
   569.604     54.227     -0.692     38.430      3.478     -0.011   -999.250
   569.646     54.575     -0.650     38.435      3.477     -0.011   -999.250
   569.688     54.867     -0.626     38.427      3.477     -0.010   -999.250
   569.730     55.054     -0.586     38.437      3.477     -0.010   -999.250
   569.772     55.140     -0.521     38.468      3.477     -0.010   -999.250
   569.814     55.232     -0.458     38.473      3.477     -0.010   -999.250
   569.856     55.328     -0.402     38.460      3.478     -0.009   -999.250
   569.898     55.213     -0.363     38.463      3.478     -0.009   -999.250
   569.940     55.019     -0.334     38.440      3.478     -0.008   -999.250
   569.982     54.888     -0.318     38.450      3.477     -0.008   -999.250
   570.024     54.887     -0.325     38.474      3.477     -0.008   -999.250
   570.066     54.951     -0.317     38.464      3.478     -0.007   -999.250
   570.108     55.055     -0.277     38.475      3.478     -0.007   -999.250
   570.150     55.193     -0.240     38.485      3.479     -0.006   -999.250
   570.192     55.380     -0.245     38.472      3.479     -0.006   -999.250
   570.234     55.666     -0.283     38.449      3.479     -0.006   -999.250
   570.276     56.019     -0.329     38.436      3.479     -0.005   -999.250
   570.318     56.311     -0.326     38.418      3.479     -0.005   -999.250
   570.360     56.619     -0.304     38.407      3.479     -0.006   -999.250
   570.402     56.886     -0.287     38.432      3.478     -0.006   -999.250
   570.444     57.190     -0.308     38.399      3.478     -0.006   -999.250
   570.486     57.661     -0.337     38.400      3.478     -0.006   -999.250
   570.528     58.080     -0.358     38.403      3.478     -0.006   -999.250
   570.570     58.471     -0.376     38.377      3.478     -0.006   -999.250
   570.612     58.870     -0.388     38.399      3.478     -0.006   -999.250
   570.654     59.267     -0.393     38.425      3.478     -0.007   -999.250
   570.696     59.733     -0.393     38.419      3.478     -0.007   -999.250
   570.738     60.109     -0.393     38.418      3.478     -0.007   -999.250
   570.780     60.430     -0.398     38.399      3.478     -0.007   -999.250
   570.822     60.689     -0.398     38.396      3.478     -0.007   -999.250
   570.864     60.916     -0.396     38.402      3.478     -0.007   -999.250
   570.906     61.113     -0.400     38.422      3.478     -0.008   -999.250
   570.948     61.360     -0.401     38.416      3.478     -0.007   -999.250
   570.990     61.712     -0.401     38.411      3.478     -0.007   -999.250
   571.032     61.958     -0.401     38.443      3.478     -0.007   -999.250
   571.074     62.040     -0.406     38.420      3.478     -0.007   -999.250
   571.116     62.132     -0.410     38.430      3.478     -0.007   -999.250
   571.158     62.292     -0.416     38.450      3.478     -0.007   -999.250
   571.200     62.554     -0.429     38.422      3.477     -0.007   -999.250
   571.242     62.855     -0.437     38.421      3.477     -0.007   -999.250
   571.284     63.150     -0.444     38.414      3.478     -0.007   -999.250
   571.326     63.449     -0.447     38.439      3.480     -0.006   -999.250
   571.368     63.547     -0.448     38.395      3.482     -0.006   -999.250
   571.410     63.566     -0.454     38.413      3.483     -0.006   -999.250
   571.452     63.564     -0.456     38.429      3.483     -0.006   -999.250
   571.494     63.738     -0.462     38.456      3.483     -0.006   -999.250
   571.536     64.143     -0.463     38.447      3.483     -0.005   -999.250
   571.578     64.593     -0.461     38.418      3.483     -0.005   -999.250
   571.620     65.011     -0.460     38.426      3.484     -0.005   -999.250
   571.662     65.417     -0.458     38.439      3.484     -0.005   -999.250
   571.704     65.832     -0.456     38.392      3.483     -0.005   -999.250
   571.746     66.485     -0.450     38.427      3.483     -0.005   -999.250
   571.788     67.265     -0.442     38.425      3.483     -0.005   -999.250
   571.830     67.801     -0.436     38.392      3.483     -0.005   -999.250
   571.872     68.105     -0.431     38.416      3.483     -0.005   -999.250
   571.914     68.362     -0.433     38.426      3.484     -0.005   -999.250
   571.956     68.722     -0.427     38.447      3.484     -0.005   -999.250
   571.998     69.069     -0.427     38.441      3.484     -0.004   -999.250
   572.040     69.384     -0.432     38.427      3.484     -0.004   -999.250
   572.082     69.685     -0.430     38.406      3.484     -0.004   -999.250
   572.124     69.896     -0.435     38.423      3.484     -0.004   -999.250
   572.166     70.160     -0.436     38.409      3.484     -0.004   -999.250
