~Version Information
VERS.          2.00                         : CWLS Log ASCII Standard - Version 2.00
WRAP.          NO                           : One line per depth step
#
~Well Information
#MNEM.UNIT     DATA                         : DESCRIPTION      
#----.----     ---------                    : -----------------
STRT .FT          0.000                     : Start
STOP .FT       1712.592                     : Stop
STEP .FT          0.042                     : Step increment
NULL .         -999.250                     : Null value
COMP .                                      : Company
WELL .                                      : Well
FLD  .                                      : Field
PROV .                                      : Province / County
CTRY .                                      : State / Country
LOC  .                                      : Location
LOC2 .                                      : Location 2
SRVC .         Weatherford                  : Service company
UWI  .                                      : Unique Well ID
LL1  .                                      : Latitude
LL2  .                                      : Longitude
DATE .         20-Mar-2008                  : Logging date
#
~Curve Information
#MNEM.UNIT     API CODES                    : CURVE DESCRIPTION
#----.----     ---------                    : -----------------
DEPT .FT       00 001 00 00                 : Logged depth
GRTH .GAPI     31 790 00 00                 : GAMMA FROM CALIPER TOOL
COLL .CPS      00 000 00 00                 : CASING COLLAR LOCATOR
TEMP .DEGC     80 660 00 00                 : BOREHOLE TEMPERATURE
CATH .         00 000 00 00                 : THREE ARM CALIPER
DIFT .         00 000 00 00                 : DIFFERENTIAL TEMPERATURE
Bit IN.e                                    : MM
#
~Parameter Information
#MNEM.UNIT     VALUE                        : DESCRIPTION      
#----.----     ---------                    : -----------------
RNID .         temp                         : Run ID
EREF .FEET                                  : Elevation of depth reference
DREF .                                      : Depth reference
GL   .FEET                                  : Ground elevation
RUN  .                                      : Run number
TDD  .FEET                                  : TD (driller)
TDL  .FEET                                  : TD (logger)
CSGD .FEET                                  : Casing bottom (driller)
CSGL .FEET                                  : Casing bottom (logger)
BS   .INCHES                                : Bit size
MUD  .                                      : Mud type
MUDD .G/C3                                  : Mud density
MUDV .CP                                    : Mud viscosity
PH   .                                      : Mud pH
FL   .ML/30MIN                              : Mud fluid loss rate
MUDS .                                      : Mud sample source
TMAX .DEGC                                  : Max recorder temperature
TIMC .DAY/HR                                : Time circulation ended
TIML .DAY/HR                                : Time logger at bottom
UNIT .                                      : Equipment ID
BASE .                                      : Equipment base location
ENG  .                                      : Recording engineer
WIT  .                                      : Witnessed by
CSGS .INCHES   0.000                        : Casing size
CSGW .LB/FT    0.00                         : Casing weight
#
~Other Information
--------------------------------------------------------------------------------

--------------------------------------------------------------------------------
~A    DEPT       GRTH       COLL       TEMP       CATH       DIFT     Bit-IN
# ...
   454.272     44.031     -0.481     37.389      3.477     -0.003   -999.250
   454.314     44.130     -0.471     37.389      3.477     -0.003   -999.250
   454.356     44.202     -0.464     37.379      3.477     -0.003   -999.250
   454.398     44.306     -0.462     37.378      3.477     -0.003   -999.250
   454.440     44.410     -0.462     37.370      3.477     -0.003   -999.250
   454.482     44.664     -0.459     37.361      3.477     -0.003   -999.250
   454.524     45.039     -0.457     37.355      3.478     -0.003   -999.250
   454.566     45.291     -0.455     37.366      3.478     -0.003   -999.250
   454.608     45.461     -0.453     37.372      3.479     -0.003   -999.250
   454.650     45.655     -0.459     37.361      3.480     -0.003   -999.250
   454.692     45.789     -0.465     37.371      3.480     -0.003   -999.250
   454.734     45.959     -0.466     37.372      3.479     -0.003   -999.250
   454.776     46.202     -0.463     37.379      3.479     -0.003   -999.250
   454.818     46.530     -0.456     37.387      3.478     -0.003   -999.250
   454.860     46.902     -0.448     37.365      3.478     -0.002   -999.250
   454.902     47.371     -0.440     37.367      3.479     -0.002   -999.250
   454.944     47.833     -0.432     37.374      3.479     -0.002   -999.250
   454.986     48.114     -0.427     37.373      3.479     -0.002   -999.250
   455.028     48.392     -0.430     37.378      3.480     -0.002   -999.250
   455.070     48.659     -0.429     37.379      3.479     -0.002   -999.250
   455.112     48.928     -0.421     37.374      3.479     -0.002   -999.250
   455.154     48.977     -0.409     37.343      3.479     -0.002   -999.250
   455.196     48.799     -0.399     37.330      3.479     -0.002   -999.250
   455.238     48.616     -0.388     37.349      3.479     -0.002   -999.250
   455.280     48.457     -0.380     37.349      3.478     -0.003   -999.250
   455.322     48.217     -0.370     37.339      3.478     -0.003   -999.250
   455.364     47.951     -0.353     37.350      3.478     -0.003   -999.250
   455.406     47.693     -0.335     37.362      3.479     -0.003   -999.250
   455.448     47.532     -0.313     37.339      3.479     -0.004   -999.250
   455.490     47.410     -0.295     37.331      3.479     -0.004   -999.250
   455.532     47.178     -0.286     37.328      3.479     -0.004   -999.250
   455.574     46.909     -0.282     37.324      3.479     -0.005   -999.250
   455.616     46.679     -0.280     37.325      3.480     -0.005   -999.250
   455.658     46.562     -0.279     37.325      3.479     -0.005   -999.250
   455.700     46.553     -0.284     37.331      3.479     -0.006   -999.250
   455.742     46.529     -0.289     37.337      3.479     -0.006   -999.250
   455.784     46.390     -0.291     37.344      3.479     -0.007   -999.250
   455.826     46.294     -0.288     37.360      3.479     -0.007   -999.250
   455.868     46.303     -0.284     37.375      3.479     -0.007   -999.250
   455.910     46.238     -0.276     37.375      3.479     -0.007   -999.250
   455.952     46.125     -0.271     37.373      3.479     -0.008   -999.250
   455.994     46.056     -0.275     37.386      3.479     -0.008   -999.250
   456.036     46.087     -0.284     37.367      3.479     -0.008   -999.250
   456.078     46.143     -0.297     37.363      3.479     -0.008   -999.250
   456.120     46.190     -0.308     37.360      3.480     -0.009   -999.250
   456.162     46.240     -0.326     37.360      3.480     -0.009   -999.250
   456.204     46.407     -0.341     37.399      3.480     -0.009   -999.250
   456.246     46.692     -0.346     37.406      3.480     -0.009   -999.250
   456.288     46.944     -0.342     37.402      3.479     -0.009   -999.250
   456.330     47.112     -0.339     37.411      3.480     -0.009   -999.250
   456.372     47.217     -0.329     37.389      3.480     -0.009   -999.250
   456.414     47.265     -0.317     37.390      3.479     -0.009   -999.250
   456.456     47.252     -0.306     37.388      3.479     -0.009   -999.250
   456.498     47.144     -0.308     37.412      3.479     -0.009   -999.250
   456.540     47.077     -0.320     37.428      3.479     -0.009   -999.250
   456.582     47.012     -0.328     37.412      3.478     -0.009   -999.250
   456.624     46.897     -0.335     37.410      3.478     -0.009   -999.250
   456.666     46.785     -0.339     37.388      3.478     -0.009   -999.250
   456.708     46.664     -0.340     37.404      3.477     -0.009   -999.250
   456.750     46.540     -0.341     37.407      3.477     -0.008   -999.250
   456.792     46.388     -0.341     37.414      3.477     -0.008   -999.250
   456.834     46.097     -0.343     37.419      3.477     -0.008   -999.250
   456.876     45.675     -0.346     37.403      3.477     -0.008   -999.250
   456.918     45.147     -0.350     37.403      3.477     -0.008   -999.250
   456.960     44.699     -0.354     37.408      3.477     -0.008   -999.250
   457.002     44.231     -0.362     37.402      3.477     -0.008   -999.250
   457.044     43.776     -0.365     37.397      3.477     -0.008   -999.250
   457.086     43.324     -0.367     37.398      3.476     -0.008   -999.250
   457.128     42.884     -0.384     37.384      3.477     -0.008   -999.250
   457.170     42.618     -0.405     37.379      3.477     -0.008   -999.250
   457.212     42.330     -0.416     37.351      3.477     -0.008   -999.250
   457.254     42.014     -0.430     37.370      3.477     -0.008   -999.250
   457.296     41.757     -0.446     37.375      3.477     -0.008   -999.250
   457.338     41.554     -0.453     37.389      3.477     -0.009   -999.250
   457.380     41.393     -0.460     37.408      3.477     -0.009   -999.250
   457.422     41.220     -0.469     37.388      3.476     -0.009   -999.250
   457.464     41.065     -0.477     37.391      3.476     -0.009   -999.250
   457.506     40.932     -0.481     37.390      3.476     -0.009   -999.250
   457.548     40.876     -0.474     37.394      3.476     -0.009   -999.250
   457.590     40.823     -0.469     37.388      3.476     -0.009   -999.250
   457.632     40.724     -0.468     37.384      3.477     -0.009   -999.250
   457.674     40.659     -0.475     37.383      3.477     -0.009   -999.250
   457.716     40.748     -0.485     37.371      3.477     -0.009   -999.250
   457.758     40.954     -0.501     37.394      3.477     -0.009   -999.250
   457.800     41.274     -0.507     37.398      3.476     -0.009   -999.250
   457.842     41.646     -0.498     37.429      3.477     -0.009   -999.250
   457.884     42.001     -0.498     37.402      3.478     -0.009   -999.250
   457.926     42.365     -0.500     37.413      3.479     -0.009   -999.250
   457.968     42.697     -0.499     37.393      3.479     -0.009   -999.250
   458.010     43.005     -0.500     37.403      3.480     -0.008   -999.250
   458.052     43.362     -0.502     37.398      3.480     -0.008   -999.250
   458.094     43.656     -0.499     37.394      3.480     -0.008   -999.250
   458.136     43.922     -0.502     37.399      3.479     -0.008   -999.250
   458.178     44.057     -0.519     37.400      3.480     -0.008   -999.250
   458.220     44.106     -0.542     37.395      3.480     -0.008   -999.250
   458.262     44.107     -0.563     37.404      3.480     -0.007   -999.250
   458.304     44.215     -0.581     37.399      3.481     -0.007   -999.250
   458.346     44.287     -0.588     37.406      3.481     -0.007   -999.250
   458.388     44.331     -0.593     37.454      3.481     -0.006   -999.250
   458.430     44.365     -0.589     37.443      3.481     -0.006   -999.250
   458.472     44.391     -0.578     37.449      3.481     -0.005   -999.250
   458.514     44.329     -0.571     37.441      3.481     -0.005   -999.250
   458.556     44.269     -0.567     37.457      3.480     -0.004   -999.250
   458.598     44.353     -0.558     37.427      3.480     -0.004   -999.250
