~Version Information
VERS.          2.00                         : CWLS Log ASCII Standard - Version 2.00
WRAP.          NO                           : One line per depth step
#
~Well Information
#MNEM.UNIT     DATA                         : DESCRIPTION      
#----.----     ---------                    : -----------------
STRT .FT          0.000                     : Start
STOP .FT       1712.592                     : Stop
STEP .FT          0.042                     : Step increment
NULL .         -999.250                     : Null value
COMP .                                      : Company
WELL .                                      : Well
FLD  .                                      : Field
PROV .                                      : Province / County
CTRY .                                      : State / Country
LOC  .                                      : Location
LOC2 .                                      : Location 2
SRVC .         Weatherford                  : Service company
UWI  .                                      : Unique Well ID
LL1  .                                      : Latitude
LL2  .                                      : Longitude
DATE .         20-Mar-2008                  : Logging date
#
~Curve Information
#MNEM.UNIT     API CODES                    : CURVE DESCRIPTION
#----.----     ---------                    : -----------------
DEPT .FT       00 001 00 00                 : Logged depth
GRTH .GAPI     31 790 00 00                 : GAMMA FROM CALIPER TOOL
COLL .CPS      00 000 00 00                 : CASING COLLAR LOCATOR
TEMP .DEGC     80 660 00 00                 : BOREHOLE TEMPERATURE
CATH .         00 000 00 00                 : THREE ARM CALIPER
DIFT .         00 000 00 00                 : DIFFERENTIAL TEMPERATURE
Bit IN.e                                    : MM
#
~Parameter Information
#MNEM.UNIT     VALUE                        : DESCRIPTION      
#----.----     ---------                    : -----------------
RNID .         temp                         : Run ID
EREF .FEET                                  : Elevation of depth reference
DREF .                                      : Depth reference
GL   .FEET                                  : Ground elevation
RUN  .                                      : Run number
TDD  .FEET                                  : TD (driller)
TDL  .FEET                                  : TD (logger)
CSGD .FEET                                  : Casing bottom (driller)
CSGL .FEET                                  : Casing bottom (logger)
BS   .INCHES                                : Bit size
MUD  .                                      : Mud type
MUDD .G/C3                                  : Mud density
MUDV .CP                                    : Mud viscosity
PH   .                                      : Mud pH
FL   .ML/30MIN                              : Mud fluid loss rate
MUDS .                                      : Mud sample source
TMAX .DEGC                                  : Max recorder temperature
TIMC .DAY/HR                                : Time circulation ended
TIML .DAY/HR                                : Time logger at bottom
UNIT .                                      : Equipment ID
BASE .                                      : Equipment base location
ENG  .                                      : Recording engineer
WIT  .                                      : Witnessed by
CSGS .INCHES   0.000                        : Casing size
CSGW .LB/FT    0.00                         : Casing weight
#
~Other Information
--------------------------------------------------------------------------------

--------------------------------------------------------------------------------
~A    DEPT       GRTH       COLL       TEMP       CATH       DIFT     Bit-IN
# ...
   681.408     82.428     -0.443     39.327      3.476      0.004   -999.250
   681.450     81.933     -0.434     39.360      3.476      0.004   -999.250
   681.492     81.543     -0.430     39.387      3.476      0.005   -999.250
   681.534     81.185     -0.429     39.384      3.476      0.005   -999.250
   681.576     80.866     -0.424     39.371      3.476      0.005   -999.250
   681.618     80.526     -0.419     39.367      3.476      0.006   -999.250
   681.660     80.272     -0.413     39.362      3.476      0.006   -999.250
   681.702     80.064     -0.414     39.365      3.476      0.006   -999.250
   681.744     79.912     -0.420     39.373      3.476      0.006   -999.250
   681.786     79.779     -0.422     39.383      3.476      0.007   -999.250
   681.828     79.480     -0.420     39.359      3.476      0.007   -999.250
   681.870     79.106     -0.415     39.358      3.477      0.007   -999.250
   681.912     78.725     -0.416     39.373      3.477      0.007   -999.250
   681.954     78.442     -0.423     39.363      3.477      0.008   -999.250
   681.996     78.328     -0.421     39.362      3.476      0.008   -999.250
   682.038     78.211     -0.424     39.376      3.476      0.008   -999.250
   682.080     78.152     -0.431     39.357      3.475      0.009   -999.250
   682.122     78.201     -0.438     39.350      3.475      0.009   -999.250
   682.164     78.308     -0.446     39.329      3.476      0.009   -999.250
   682.206     78.445     -0.450     39.325      3.476      0.008   -999.250
   682.248     78.767     -0.453     39.360      3.476      0.008   -999.250
   682.290     79.053     -0.453     39.350      3.476      0.008   -999.250
   682.332     79.276     -0.447     39.351      3.476      0.008   -999.250
   682.374     79.614     -0.441     39.344      3.476      0.008   -999.250
   682.416     79.979     -0.427     39.339      3.476      0.008   -999.250
   682.458     80.326     -0.419     39.347      3.476      0.008   -999.250
   682.500     80.537     -0.415     39.354      3.476      0.007   -999.250
   682.542     80.682     -0.416     39.334      3.475      0.007   -999.250
   682.584     80.649     -0.416     39.346      3.475      0.007   -999.250
   682.626     80.434     -0.415     39.340      3.475      0.007   -999.250
   682.668     80.182     -0.414     39.344      3.476      0.007   -999.250
   682.710     79.855     -0.414     39.302      3.476      0.007   -999.250
   682.752     79.388     -0.409     39.347      3.476      0.006   -999.250
   682.794     78.920     -0.406     39.331      3.476      0.006   -999.250
   682.836     78.543     -0.405     39.336      3.476      0.006   -999.250
   682.878     78.130     -0.403     39.340      3.476      0.005   -999.250
   682.920     77.567     -0.402     39.316      3.475      0.005   -999.250
   682.962     77.043     -0.405     39.326      3.474      0.005   -999.250
   683.004     76.633     -0.418     39.316      3.475      0.004   -999.250
   683.046     76.112     -0.428     39.299      3.474      0.004   -999.250
   683.088     75.492     -0.442     39.317      3.474      0.003   -999.250
   683.130     74.747     -0.452     39.322      3.474      0.003   -999.250
   683.172     73.954     -0.460     39.316      3.474      0.002   -999.250
   683.214     73.229     -0.465     39.332      3.474      0.002   -999.250
   683.256     72.684     -0.467     39.322      3.474      0.001   -999.250
   683.298     72.360     -0.470     39.315      3.474      0.001   -999.250
   683.340     72.104     -0.468     39.336      3.475      0.000   -999.250
   683.382     71.800     -0.467     39.314      3.474      0.000   -999.250
   683.424     71.635     -0.465     39.329      3.474     -0.001   -999.250
   683.466     71.611     -0.461     39.330      3.474     -0.001   -999.250
   683.508     71.549     -0.459     39.334      3.473     -0.001   -999.250
   683.550     71.404     -0.454     39.315      3.473     -0.002   -999.250
   683.592     71.287     -0.450     39.340      3.473     -0.002   -999.250
   683.634     71.103     -0.447     39.319      3.473     -0.002   -999.250
   683.676     70.883     -0.440     39.319      3.473     -0.003   -999.250
   683.718     70.714     -0.433     39.326      3.473     -0.003   -999.250
   683.760     70.530     -0.425     39.309      3.474     -0.004   -999.250
   683.802     70.387     -0.425     39.323      3.474     -0.004   -999.250
   683.844     70.482     -0.420     39.314      3.474     -0.005   -999.250
   683.886     70.634     -0.418     39.314      3.474     -0.005   -999.250
   683.928     70.876     -0.416     39.319      3.474     -0.006   -999.250
   683.970     71.076     -0.416     39.348      3.474     -0.006   -999.250
   684.012     71.165     -0.419     39.297      3.474     -0.007   -999.250
   684.054     71.147     -0.420     39.271      3.474     -0.007   -999.250
   684.096     71.050     -0.426     39.299      3.473     -0.008   -999.250
   684.138     70.950     -0.432     39.271      3.473     -0.009   -999.250
   684.180     70.796     -0.438     39.275      3.474     -0.010   -999.250
   684.222     70.461     -0.444     39.304      3.474     -0.011   -999.250
   684.264     70.069     -0.450     39.301      3.474     -0.012   -999.250
   684.306     69.719     -0.454     39.281      3.475     -0.013   -999.250
   684.348     69.288     -0.456     39.285      3.474     -0.014   -999.250
   684.390     68.807     -0.466     39.281      3.474     -0.015   -999.250
   684.432     68.492     -0.473     39.307      3.474     -0.016   -999.250
   684.474     68.327     -0.467     39.282      3.475     -0.017   -999.250
   684.516     68.276     -0.457     39.285      3.476     -0.018   -999.250
   684.558     68.235     -0.454     39.320      3.476     -0.018   -999.250
   684.600     68.296     -0.447     39.283      3.475     -0.019   -999.250
   684.642     68.594     -0.444     39.269      3.475     -0.020   -999.250
   684.684     68.990     -0.436     39.311      3.475     -0.022   -999.250
   684.726     69.563     -0.428     39.338      3.476     -0.023   -999.250
   684.768     70.316     -0.424     39.354      3.477     -0.024   -999.250
   684.810     70.962     -0.419     39.335      3.477     -0.024   -999.250
   684.852     71.602     -0.418     39.358      3.477     -0.025   -999.250
   684.894     72.437     -0.413     39.350      3.477     -0.026   -999.250
   684.936     73.297     -0.407     39.346      3.477     -0.026   -999.250
   684.978     74.179     -0.405     39.342      3.477     -0.027   -999.250
   685.020     75.104     -0.404     39.370      3.477     -0.028   -999.250
   685.062     76.158     -0.407     39.382      3.476     -0.028   -999.250
   685.104     77.214     -0.404     39.388      3.476     -0.029   -999.250
   685.146     78.204     -0.409     39.369      3.476     -0.030   -999.250
   685.188     79.041     -0.419     39.367      3.476     -0.030   -999.250
   685.230     79.877     -0.429     39.363      3.476     -0.031   -999.250
   685.272     80.660     -0.440     39.373      3.476     -0.031   -999.250
   685.314     81.175     -0.443     39.386      3.475     -0.032   -999.250
   685.356     81.658     -0.448     39.374      3.475     -0.032   -999.250
   685.398     82.039     -0.455     39.365      3.476     -0.033   -999.250
   685.440     82.267     -0.457     39.390      3.476     -0.033   -999.250
   685.482     82.514     -0.462     39.400      3.476     -0.033   -999.250
   685.524     82.770     -0.460     39.406      3.476     -0.033   -999.250
   685.566     82.817     -0.458     39.383      3.475     -0.033   -999.250
   685.608     82.751     -0.465     39.397      3.476     -0.034   -999.250
   685.650     82.729     -0.469     39.414      3.476     -0.034   -999.250
   685.692     82.745     -0.465     39.419      3.476     -0.034   -999.250
   685.734     82.820     -0.456     39.403      3.476     -0.034   -999.250
